location_id,name,stars,rating,num_reviews,ranking_madrid,price_min_usd,price_max_usd,price_lowest,address,phone,latitude,longitude,category,url
190149,Hotel Villa Real,5,4.5,2632,#52 of 498 hotels in Madrid,195,381,$215,"Plaza de las Cortes, 10, 28014 Madrid Spain",+34 914 20 37 67,40.415535,-3.69705,HOTEL,https://www.tripadvisor.com/Hotel_Review-g187514-d190149-Reviews-Hotel_Villa_Real-Madrid.html
190151,Hotel Los Condes,3,3.8,966,#236 of 498 hotels in Madrid,93,376,$145,"Calle Libreros 7, 28004 Madrid Spain",+34 915 21 54 55,40.421894,-3.706564,HOTEL,https://www.tripadvisor.com/Hotel_Review-g187514-d190151-Reviews-Hotel_Los_Condes-Madrid.html
190157,Catalonia Gran Vía Madrid,4,4.2,630,#173 of 498 hotels in Madrid,177,441,$275,"Gran Via 7- 9, 28013 Madrid Spain",+34 915 31 22 22,40.419514,-3.698507,HOTEL,https://www.tripadvisor.com/Hotel_Review-g187514-d190157-Reviews-Catalonia_Gran_Via_Madrid-Madrid.html
190159,Hotel Ópera,4,4.1,1577,#166 of 498 hotels in Madrid,144,395,,"Cuesta Santo Domingo 2, 28013 Madrid Spain",+34 915 41 28 00,40.418846,-3.710229,HOTEL,https://www.tripadvisor.com/Hotel_Review-g187514-d190159-Reviews-Hotel_Opera-Madrid.html
190161,Rosewood Villa Magna,5,4.6,903,#97 of 498 hotels in Madrid,986,2285,,"Paseo de la Castellana 22, 28046 Madrid Spain",+34 915 87 12 34,40.429955,-3.688153,HOTEL,https://www.tripadvisor.com/Hotel_Review-g187514-d190161-Reviews-Rosewood_Villa_Magna-Madrid.html
190569,"The Palace, a Luxury Collection Hotel, Madrid",5,4.4,5345,#134 of 498 hotels in Madrid,463,990,$651,"Plaza De Las Cortes 7, 28014 Madrid Spain",+34 913 60 80 00,40.415203,-3.694835,HOTEL,https://www.tripadvisor.com/Hotel_Review-g187514-d190569-Reviews-The_Palace_a_Luxury_Collection_Hotel_Madrid-Madrid.html
190570,"Mandarin Oriental Ritz, Madrid",5,4.5,307,#96 of 498 hotels in Madrid,1075,2078,"$1,767","Plaza de la Lealtad 5, 28014 Madrid Spain",+34 917 01 67 67,40.41576,-3.692608,HOTEL,https://www.tripadvisor.com/Hotel_Review-g187514-d190570-Reviews-Mandarin_Oriental_Ritz_Madrid-Madrid.html
190571,"Santo Mauro, a Luxury Collection Hotel, Madrid",5,4.4,569,#132 of 498 hotels in Madrid,719,1252,,"Zurbano 36, 28010 Madrid Spain",+34 913 19 69 00,40.4309,-3.69353,HOTEL,https://www.tripadvisor.com/Hotel_Review-g187514-d190571-Reviews-Santo_Mauro_a_Luxury_Collection_Hotel_Madrid-Madrid.html
190572,Vincci Soma,4,4.1,1895,#112 of 498 hotels in Madrid,156,578,$167,"Calle Goya 79, 28001 Madrid Spain",+34 918 31 55 66,40.425037,-3.677969,HOTEL,https://www.tripadvisor.com/Hotel_Review-g187514-d190572-Reviews-Vincci_Soma-Madrid.html
195190,Hotel Arosa,4,3.7,1380,#265 of 498 hotels in Madrid,,,,"Calle Salud 21, 28013 Madrid Spain",+34 915 32 16 00,40.42001,-3.703198,HOTEL,https://www.tripadvisor.com/Hotel_Review-g187514-d195190-Reviews-Hotel_Arosa-Madrid.html
195191,Hotel Persal,2,4.1,1077,#169 of 498 hotels in Madrid,116,222,,"Plaza del Ángel, 12, 28012 Madrid Spain",+34 913 69 46 43,40.414272,-3.702194,HOTEL,https://www.tripadvisor.com/Hotel_Review-g187514-d195191-Reviews-Hotel_Persal-Madrid.html
198369,Hostal la Macarena,2,4.1,261,#275 of 498 hotels in Madrid,116,188,,"Calle Cava de San Miguel 8, 28005 Madrid Spain",011-34-91-365-9221,40.41472,-3.708123,HOTEL,https://www.tripadvisor.com/Hotel_Review-g187514-d198369-Reviews-Hostal_la_Macarena-Madrid.html
206966,Hotel Motel One Madrid - Plaza De España,4,4.4,632,#141 of 498 hotels in Madrid,145,318,$190,"Calle Del Tutor 1 Esquina Ventura Rodriguez, 28008 Madrid Spain",+34 915 41 98 80,40.425697,-3.713862,HOTEL,https://www.tripadvisor.com/Hotel_Review-g187514-d206966-Reviews-Hotel_Motel_One_Madrid_Plaza_De_Espana-Madrid.html
206968,NH Collection Madrid Eurobuilding,4,4.6,2876,#115 of 498 hotels in Madrid,212,643,$327,"Padre Damian, 23, 28036 Madrid Spain",+34 913 53 73 00,40.4582,-3.685823,HOTEL,https://www.tripadvisor.com/Hotel_Review-g187514-d206968-Reviews-NH_Collection_Madrid_Eurobuilding-Madrid.html
206970,NH Collection Madrid Colón,4,4.6,1301,#44 of 498 hotels in Madrid,243,498,,"C. del Marqués de Zurgena, 4, 28001 Madrid Spain",+34 915 76 08 00,40.426197,-3.68905,HOTEL,https://www.tripadvisor.com/Hotel_Review-g187514-d206970-Reviews-NH_Collection_Madrid_Colon-Madrid.html
206971,NH Collection Madrid Abascal,4,4.6,2304,#30 of 498 hotels in Madrid,148,357,$290,"C/ Jose Abascal 47 Chamberi, 28003 Madrid Spain",+34 914 41 00 15,40.438347,-3.695164,HOTEL,https://www.tripadvisor.com/Hotel_Review-g187514-d206971-Reviews-NH_Collection_Madrid_Abascal-Madrid.html
206972,NH Madrid Lagasca,3,4,880,#214 of 498 hotels in Madrid,206,450,$293,"Calle Lagasca 64, 28001 Madrid Spain",+34 915 75 46 06,40.42754,-3.685111,HOTEL,https://www.tripadvisor.com/Hotel_Review-g187514-d206972-Reviews-NH_Madrid_Lagasca-Madrid.html
206975,Leonardo Hotel Madrid City Center,3,3.9,502,#216 of 498 hotels in Madrid,120,324,$178,"Calle de Alberto Aguilera 18, 28015 Madrid Spain",+34 914 46 09 00,40.430237,-3.708532,HOTEL,https://www.tripadvisor.com/Hotel_Review-g187514-d206975-Reviews-Leonardo_Hotel_Madrid_City_Center-Madrid.html
206976,NH Madrid Ventas,4,4.4,1662,#78 of 498 hotels in Madrid,137,305,$189,"Calle Biarritz 2, 28028 Madrid Spain",+34 913 61 02 88,40.435574,-3.66376,HOTEL,https://www.tripadvisor.com/Hotel_Review-g187514-d206976-Reviews-NH_Madrid_Ventas-Madrid.html
206977,NH Madrid Nacional,4,4.3,1662,#80 of 498 hotels in Madrid,165,366,,"Paseo del Prado, 48 Barrio de Las Letras, 28014 Madrid Spain",+34 914 29 66 29,40.40978,-3.692687,HOTEL,https://www.tripadvisor.com/Hotel_Review-g187514-d206977-Reviews-NH_Madrid_Nacional-Madrid.html
206978,H10 Puerta de Alcala,4,4.3,933,#113 of 498 hotels in Madrid,160,409,,"Calle de Alcala 66, 28009 Madrid Spain",+34 914 35 10 60,40.42217,-3.68116,HOTEL,https://www.tripadvisor.com/Hotel_Review-g187514-d206978-Reviews-H10_Puerta_de_Alcala-Madrid.html
206979,NH Madrid Chamberi,3,4.1,659,#154 of 498 hotels in Madrid,153,315,,"Calle Breton de los Herreros 29, 28003 Madrid Spain",+34 914 42 83 00,40.43961,-3.698256,HOTEL,https://www.tripadvisor.com/Hotel_Review-g187514-d206979-Reviews-NH_Madrid_Chamberi-Madrid.html
206980,Erase un Hotel,3,3.8,252,#279 of 498 hotels in Madrid,74,251,$149,"Calle Bravo Murillo 304 Tetuán, 28020 Madrid Spain",+34 915 71 28 80,40.462997,-3.696761,HOTEL,https://www.tripadvisor.com/Hotel_Review-g187514-d206980-Reviews-Erase_un_Hotel-Madrid.html
206981,NH Madrid Paseo de la Habana,4,3.6,1148,#245 of 498 hotels in Madrid,150,378,$233,"Paseo de la Habana, 73, 28036 Madrid Spain",+34 914 43 07 20,40.455814,-3.681824,HOTEL,https://www.tripadvisor.com/Hotel_Review-g187514-d206981-Reviews-NH_Madrid_Paseo_de_la_Habana-Madrid.html
206982,NH Madrid Balboa,4,4.2,364,#163 of 498 hotels in Madrid,183,364,$265,"Calle Nunez de Balboa 112, 28006 Madrid Spain",+34 915 63 03 24,40.435978,-3.681778,HOTEL,https://www.tripadvisor.com/Hotel_Review-g187514-d206982-Reviews-NH_Madrid_Balboa-Madrid.html
206983,NH Madrid Zurbano,4,4.1,1305,#189 of 498 hotels in Madrid,152,343,$198,"Calle Zurbano 79-81 Chamberi, 28003 Madrid Spain",+34 914 41 45 00,40.438923,-3.692894,HOTEL,https://www.tripadvisor.com/Hotel_Review-g187514-d206983-Reviews-NH_Madrid_Zurbano-Madrid.html
206984,Novotel Madrid Campo De Las Naciones Hotel,4,4,235,#252 of 498 hotels in Madrid,148,400,$315,"Calle Amsterdam 3 Campo De Las Naciones, 28042 Madrid Spain",+34 917 21 18 18,40.46804,-3.571361,HOTEL,https://www.tripadvisor.com/Hotel_Review-g187514-d206984-Reviews-Novotel_Madrid_Campo_De_Las_Naciones_Hotel-Madrid.html
206985,Leonardo Boutique Hotel Madrid,3,4,227,#291 of 498 hotels in Madrid,118,281,,"Calle Vallehermoso 65 Universidad, Chamberi, 28015 Madrid Spain",+34 915 93 97 77,40.437237,-3.708549,HOTEL,https://www.tripadvisor.com/Hotel_Review-g187514-d206985-Reviews-Leonardo_Boutique_Hotel_Madrid-Madrid.html
206986,Novotel Madrid City Las Ventas,4,4.3,197,#227 of 498 hotels in Madrid,130,326,$159,"Calle Albacete 1 Esquina avenida de badajoz, 28027 Madrid Spain",+34 917 24 76 00,40.441277,-3.657714,HOTEL,https://www.tripadvisor.com/Hotel_Review-g187514-d206986-Reviews-Novotel_Madrid_City_Las_Ventas-Madrid.html
206987,NH Madrid Atocha,3,4.2,939,#161 of 498 hotels in Madrid,157,364,$183,"Paseo Infanta Isabel 9 Front to Atocha train station, 28014 Madrid Spain",+34 915 39 94 00,40.407806,-3.689272,HOTEL,https://www.tripadvisor.com/Hotel_Review-g187514-d206987-Reviews-NH_Madrid_Atocha-Madrid.html
206988,Sercotel Gran Hotel Conde Duque,4,4.1,1432,#195 of 498 hotels in Madrid,145,314,$213,"Plaza Conde del Valle de Suchil 5, 28015 Madrid Spain",+34 914 47 70 00,40.43077,-3.707741,HOTEL,https://www.tripadvisor.com/Hotel_Review-g187514-d206988-Reviews-Sercotel_Gran_Hotel_Conde_Duque-Madrid.html
206992,Hotel Moderno,3,4.3,1807,#103 of 498 hotels in Madrid,129,308,$205,"Calle Arenal 2, 28013 Madrid Spain",+34 915 31 09 00,40.416973,-3.704872,HOTEL,https://www.tripadvisor.com/Hotel_Review-g187514-d206992-Reviews-Hotel_Moderno-Madrid.html
206994,Hotel NH Madrid Barajas Airport,3,4,891,#217 of 498 hotels in Madrid,109,243,,"Calle Catamaran 1 Alameda de Osuna, 28042 Madrid Spain",+34 917 42 02 00,40.450867,-3.59509,HOTEL,https://www.tripadvisor.com/Hotel_Review-g187514-d206994-Reviews-Hotel_NH_Madrid_Barajas_Airport-Madrid.html
227453,Villamadrid Hotel,4,3.9,397,#258 of 498 hotels in Madrid,113,4464,$188,"Calle Xaudaro 2, 28034 Madrid Spain",+34 912 53 50 00,40.48966,-3.687919,HOTEL,https://www.tripadvisor.com/Hotel_Review-g187514-d227453-Reviews-Villamadrid_Hotel-Madrid.html
227457,Hotel Cason del Tormes,3,4.1,819,#174 of 498 hotels in Madrid,106,347,$123,"Calle del Río, 7, 28013 Madrid Spain",+34 915 41 97 46,40.42228,-3.711647,HOTEL,https://www.tripadvisor.com/Hotel_Review-g187514-d227457-Reviews-Hotel_Cason_del_Tormes-Madrid.html
227458,Hotel Avion,,2,2,#464 of 498 hotels in Madrid,,,,"200 Cra Barcelona Km 14, 28042 Madrid Spain",+34 917 47 62 22,40.41506,-3.70261,HOTEL,https://www.tripadvisor.com/Hotel_Review-g187514-d227458-Reviews-Hotel_Avion-Madrid.html
227459,Hotel Atlántico,4,4.6,3978,#68 of 498 hotels in Madrid,240,426,$343,"Calle Gran Vía, 38, 28013 Madrid Spain",+34 915 22 64 80,40.420406,-3.704587,HOTEL,https://www.tripadvisor.com/Hotel_Review-g187514-d227459-Reviews-Hotel_Atlantico-Madrid.html
228460,Sercotel Togumar,3,3.9,602,#197 of 498 hotels in Madrid,106,268,,"Calle Canillas, 59, 28002 Madrid Spain",+34 915 19 00 51,40.44385,-3.672706,HOTEL,https://www.tripadvisor.com/Hotel_Review-g187514-d228460-Reviews-Sercotel_Togumar-Madrid.html
228468,Hotel Madrid Centro Affiliated by Meliá,3,3.6,1464,#284 of 498 hotels in Madrid,136,347,$143,"Calle Gran Via 72, 28013 Madrid Spain",+34 915 41 72 27,40.422974,-3.709676,HOTEL,https://www.tripadvisor.com/Hotel_Review-g187514-d228468-Reviews-Hotel_Madrid_Centro_Affiliated_by_Melia-Madrid.html
228472,INNSiDE by Meliá Madrid Gran Via,4,4.4,220,#168 of 498 hotels in Madrid,226,454,,"Gran Vía 34, 28004 Madrid Spain",+34 915 32 15 52,40.420456,-3.703952,HOTEL,https://www.tripadvisor.com/Hotel_Review-g187514-d228472-Reviews-INNSiDE_by_Melia_Madrid_Gran_Via-Madrid.html
228475,Hotel Claridge,4,4.4,1885,#104 of 498 hotels in Madrid,154,301,,"Plaza del Conde de Casal 6, 28007 Madrid Spain",+34 915 51 94 00,40.406345,-3.669318,HOTEL,https://www.tripadvisor.com/Hotel_Review-g187514-d228475-Reviews-Hotel_Claridge-Madrid.html
228490,Hotel Agumar,4,3.7,1704,#255 of 498 hotels in Madrid,113,312,,"Paseo de la Reina Cristina 7, 28014 Madrid Spain",+34 915 52 69 00,40.406902,-3.683124,HOTEL,https://www.tripadvisor.com/Hotel_Review-g187514-d228490-Reviews-Hotel_Agumar-Madrid.html
228493,Escultor Hotel,4,2.8,16,#439 of 498 hotels in Madrid,150,282,,"Calle Miguel Angel 3, 28010 Madrid Spain",+34 913 10 42 03,40.43383,-3.69146,HOTEL,https://www.tripadvisor.com/Hotel_Review-g187514-d228493-Reviews-Escultor_Hotel-Madrid.html
228494,Mindanao Hotel,4.5,5,1,#435 of 498 hotels in Madrid,,,,"Paseo San Francisco De Sales, 28003 Madrid Spain",34 091 5495500,40.4446,-3.70941,HOTEL,https://www.tripadvisor.com/Hotel_Review-g187514-d228494-Reviews-Mindanao_Hotel-Madrid.html
228501,Rafaelhoteles Atocha,4,3.8,2010,#182 of 498 hotels in Madrid,139,293,$166,"Méndez Álvaro 30, 28045 Madrid Spain",+34 914 68 81 00,40.401447,-3.687233,HOTEL,https://www.tripadvisor.com/Hotel_Review-g187514-d228501-Reviews-Rafaelhoteles_Atocha-Madrid.html
228509,Vincci Capitol Hotel,4,4.1,2709,#91 of 498 hotels in Madrid,162,544,$241,"Calle Gran Via 41, 28013 Madrid Spain",+34 918 31 55 66,40.420464,-3.706532,HOTEL,https://www.tripadvisor.com/Hotel_Review-g187514-d228509-Reviews-Vincci_Capitol_Hotel-Madrid.html
228510,Ac Hotel Carlton Madrid,4,4,1618,#190 of 498 hotels in Madrid,182,336,,"Paseo de la Delicias 26, 28045 Madrid Spain",+34 915 39 71 00,40.40608,-3.69368,HOTEL,https://www.tripadvisor.com/Hotel_Review-g187514-d228510-Reviews-Ac_Hotel_Carlton_Madrid-Madrid.html
228517,Melia Madrid Serrano,4,4.3,417,#150 of 498 hotels in Madrid,222,490,$302,"Calle Claudio Coello 139, 28006 Madrid Spain",+34 915 62 66 00,40.435246,-3.685523,HOTEL,https://www.tripadvisor.com/Hotel_Review-g187514-d228517-Reviews-Melia_Madrid_Serrano-Madrid.html
228518,Hotel Madrid Chamartín Affiliated by Meliá,3,3.8,1795,#267 of 498 hotels in Madrid,127,307,$138,"Calle Mauricio Ravel 10, 28046 Madrid Spain",+34 917 33 34 00,40.471985,-3.684735,HOTEL,https://www.tripadvisor.com/Hotel_Review-g187514-d228518-Reviews-Hotel_Madrid_Chamartin_Affiliated_by_Melia-Madrid.html
228522,Hotel Eurostars Monte Real,4,4,306,#297 of 498 hotels in Madrid,99,302,,"Calle Arroyofresno 17, 28035 Madrid Spain",+34 917 36 52 73,40.475155,-3.743022,HOTEL,https://www.tripadvisor.com/Hotel_Review-g187514-d228522-Reviews-Hotel_Eurostars_Monte_Real-Madrid.html
228523,Petit Palace Arturo Soria,4,4.3,1079,#41 of 498 hotels in Madrid,114,320,,"Calle Arturo Soria 14, 28027 Madrid Spain",+34 679 98 26 43,40.439426,-3.638834,HOTEL,https://www.tripadvisor.com/Hotel_Review-g187514-d228523-Reviews-Petit_Palace_Arturo_Soria-Madrid.html
228529,Palacio de los Duques Gran Meliá - The Leading Hotels of the World,5,4.8,2031,#9 of 498 hotels in Madrid,389,811,,"Cuesta Santo Domingo 5 Y 7, 28013 Madrid Spain",+34 915 41 67 00,40.419724,-3.709723,HOTEL,https://www.tripadvisor.com/Hotel_Review-g187514-d228529-Reviews-Palacio_de_los_Duques_Gran_Melia_The_Leading_Hotels_of_the_World-Madrid.html
228539,Hotel Madrid Alameda Aeropuerto Affiliated by Melia,4,3.9,2007,#253 of 498 hotels in Madrid,138,335,$178,"Avenida De Logroño 100, 28042 Madrid Spain",34 091 747 4800,40.469135,-3.580105,HOTEL,https://www.tripadvisor.com/Hotel_Review-g187514-d228539-Reviews-Hotel_Madrid_Alameda_Aeropuerto_Affiliated_by_Melia-Madrid.html
228542,Ac Hotel Avenida De America,3,3.9,649,#244 of 498 hotels in Madrid,163,289,,"Cartagena, 83-85, 28028 Madrid Spain",+34 917 24 42 40,40.438072,-3.672614,HOTEL,https://www.tripadvisor.com/Hotel_Review-g187514-d228542-Reviews-Ac_Hotel_Avenida_De_America-Madrid.html
228549,Crisol Via Castellana,4,3.5,836,#303 of 498 hotels in Madrid,,,,"Paseo de la Castellana 220, 28046 Madrid Spain",+34 915 67 43 00,40.46774,-3.688318,HOTEL,https://www.tripadvisor.com/Hotel_Review-g187514-d228549-Reviews-Crisol_Via_Castellana-Madrid.html
228557,Melia Avenida America,4,4,2013,#177 of 498 hotels in Madrid,134,376,$187,"Calle De Juan Ignacio Luca De Tena 36, 28027 Madrid Spain",+34 914 23 24 00,40.447426,-3.628049,HOTEL,https://www.tripadvisor.com/Hotel_Review-g187514-d228557-Reviews-Melia_Avenida_America-Madrid.html
228560,Eurostars Madrid Gran Via,4,4.1,174,#286 of 498 hotels in Madrid,148,394,$205,"Calle Leganitos, 13, 28013 Madrid Spain",+34 915 48 76 40,40.42115,-3.70982,HOTEL,https://www.tripadvisor.com/Hotel_Review-g187514-d228560-Reviews-Eurostars_Madrid_Gran_Via-Madrid.html
228568,Senator Barajas Hotel,4,3.2,898,#348 of 498 hotels in Madrid,96,223,,"C. del Galeón, 27, 28042 Madrid Spain",+34 917 47 13 55,40.458748,-3.582366,HOTEL,https://www.tripadvisor.com/Hotel_Review-g187514-d228568-Reviews-Senator_Barajas_Hotel-Madrid.html
228571,Hotel Exe Plaza,4,3.8,1348,#249 of 498 hotels in Madrid,129,374,$236,"Paseo de la Castellana 191, 28046 Madrid Spain",+34 914 53 19 00,40.467552,-3.690039,HOTEL,https://www.tripadvisor.com/Hotel_Review-g187514-d228571-Reviews-Hotel_Exe_Plaza-Madrid.html
228573,voco Madrid - Retiro by IHG,4,4,3051,#199 of 498 hotels in Madrid,138,400,,"Calle Pez Volador 11, 28007 Madrid Spain",+34 914 00 99 02,40.41335,-3.668005,HOTEL,https://www.tripadvisor.com/Hotel_Review-g187514-d228573-Reviews-Voco_Madrid_Retiro_by_IHG-Madrid.html
228582,Mercure Madrid Centro,4,3.9,1343,#225 of 498 hotels in Madrid,169,355,,"Calle Lope de Vega 49, 28014 Madrid Spain",+34 913 60 00 11,40.41403,-3.69451,HOTEL,https://www.tripadvisor.com/Hotel_Review-g187514-d228582-Reviews-Mercure_Madrid_Centro-Madrid.html
228586,NYX Hotel Madrid,4,3.7,306,#302 of 498 hotels in Madrid,141,318,$235,"Aviador Zorita 34, 28020 Madrid Spain",+34 915 53 59 00,40.450413,-3.697916,HOTEL,https://www.tripadvisor.com/Hotel_Review-g187514-d228586-Reviews-NYX_Hotel_Madrid-Madrid.html
228597,"Hotel Madrid Gran Vía 25, Affiliated by Meliá",3,3.8,1970,#262 of 498 hotels in Madrid,,,,"Gran Vía 25, 28013 Madrid Spain",+34 915 22 11 21,40.419956,-3.702222,HOTEL,https://www.tripadvisor.com/Hotel_Review-g187514-d228597-Reviews-Hotel_Madrid_Gran_Via_25_Affiliated_by_Melia-Madrid.html
228600,Eurostars Casa de la Lirica,4,3.8,475,#301 of 498 hotels in Madrid,119,379,,"Calle de la Aduana, 19, 28013 Madrid Spain",+34 913 60 49 30,40.418484,-3.70126,HOTEL,https://www.tripadvisor.com/Hotel_Review-g187514-d228600-Reviews-Eurostars_Casa_de_la_Lirica-Madrid.html
228602,Ac Hotel Aitana,4,4.2,499,#188 of 498 hotels in Madrid,186,468,,"Paseo De La Castellana 152, 28046 Madrid Spain",+34 914 58 49 70,40.45601,-3.68977,HOTEL,https://www.tripadvisor.com/Hotel_Review-g187514-d228602-Reviews-Ac_Hotel_Aitana-Madrid.html
228613,Best Osuna Madrid Feria,4,2.9,1120,#365 of 498 hotels in Madrid,105,259,$189,"Calle de Luis de la Mata 18, 28042 Madrid Spain",+34 917 41 81 00,40.453217,-3.613035,HOTEL,https://www.tripadvisor.com/Hotel_Review-g187514-d228613-Reviews-Best_Osuna_Madrid_Feria-Madrid.html
228615,Petit Palace Preciados,3,4.2,1727,#43 of 498 hotels in Madrid,144,362,$207,"Calle Galdo 2, 28013 Madrid Spain",+34 682 52 58 14,40.418102,-3.704406,HOTEL,https://www.tripadvisor.com/Hotel_Review-g187514-d228615-Reviews-Petit_Palace_Preciados-Madrid.html
228623,Hotel Chamartín The One,4,3.4,1964,#307 of 498 hotels in Madrid,113,291,,"Calle de Agustin de Foxa s/n, 28036 Madrid Spain",+34 913 34 49 00,40.47228,-3.683248,HOTEL,https://www.tripadvisor.com/Hotel_Review-g187514-d228623-Reviews-Hotel_Chamartin_The_One-Madrid.html
228630,"Hotel Madrid Plaza España, Affiliated By Meliá",4,3.7,1475,#289 of 498 hotels in Madrid,148,361,$161,"Gran Via 74, 28013 Madrid Spain",+34 915 47 09 00,40.423058,-3.709884,HOTEL,https://www.tripadvisor.com/Hotel_Review-g187514-d228630-Reviews-Hotel_Madrid_Plaza_Espana_Affiliated_By_Melia-Madrid.html
228644,Hotel Praga,4,3.4,2141,#271 of 498 hotels in Madrid,95,265,$118,"Calle de Antonio Lopez 65, 28019 Madrid Spain",+34 914 69 06 00,40.39411,-3.707791,HOTEL,https://www.tripadvisor.com/Hotel_Review-g187514-d228644-Reviews-Hotel_Praga-Madrid.html
228655,Aa Hotel Serrano,4,3.7,195,#326 of 498 hotels in Madrid,151,311,,"Calle Marques de Villamejor 8, 28006 Madrid Spain",+34 915 76 96 26,40.43113,-3.687379,HOTEL,https://www.tripadvisor.com/Hotel_Review-g187514-d228655-Reviews-Aa_Hotel_Serrano-Madrid.html
228658,Wellington Hotel & Spa,5,4.4,2062,#125 of 498 hotels in Madrid,467,691,$495,"Calle Velazquez 8, 28001 Madrid Spain",+34 915 75 44 00,40.42213,-3.684043,HOTEL,https://www.tripadvisor.com/Hotel_Review-g187514-d228658-Reviews-Wellington_Hotel_Spa-Madrid.html
228659,Melia Castilla,4,4.4,4692,#22 of 498 hotels in Madrid,208,418,,"Calle del Poeta Joan Maragall, 43, 28020 Madrid Spain",+34 915 67 50 00,40.46138,-3.69196,HOTEL,https://www.tripadvisor.com/Hotel_Review-g187514-d228659-Reviews-Melia_Castilla-Madrid.html
228660,ILUNION Pio XII,4,4.1,1504,#144 of 498 hotels in Madrid,111,292,$141,"Avenida de Pio XII 77, 28016 Madrid Spain",+34 913 87 62 00,40.46894,-3.674014,HOTEL,https://www.tripadvisor.com/Hotel_Review-g187514-d228660-Reviews-ILUNION_Pio_XII-Madrid.html
228661,H10 Tribeca,4,4,976,#187 of 498 hotels in Madrid,120,351,$265,"Calle Pedro Teixeira 5, 28020 Madrid Spain",+34 915 97 15 68,40.455257,-3.694293,HOTEL,https://www.tripadvisor.com/Hotel_Review-g187514-d228661-Reviews-H10_Tribeca-Madrid.html
228663,Hotel Gran Versalles,4,3.9,1236,#235 of 498 hotels in Madrid,144,397,$235,"Calle Covarrubias 4 Chamberí, 28010 Madrid Spain",+34 914 47 57 00,40.428387,-3.697069,HOTEL,https://www.tripadvisor.com/Hotel_Review-g187514-d228663-Reviews-Hotel_Gran_Versalles-Madrid.html
228665,Emperador Hotel Madrid,4,4,3100,#206 of 498 hotels in Madrid,182,470,,"Calle Gran Via 53, 28013 Madrid Spain",+34 915 47 28 00,40.421406,-3.708158,HOTEL,https://www.tripadvisor.com/Hotel_Review-g187514-d228665-Reviews-Emperador_Hotel_Madrid-Madrid.html
229441,Canopy by Hilton Madrid Castellana,4,4.2,262,#219 of 498 hotels in Madrid,199,534,$303,"Plaza Carlos Trias Bertran 4, 28020 Madrid Spain",+34 911 78 18 00,40.451324,-3.693577,HOTEL,https://www.tripadvisor.com/Hotel_Review-g187514-d229441-Reviews-Canopy_by_Hilton_Madrid_Castellana-Madrid.html
229686,Hyatt Regency Hesperia Madrid,5,4.4,517,#102 of 498 hotels in Madrid,257,678,,"Paseo de la Castellana, 57 Chamberi, 28046 Madrid Spain",+34 912 10 88 00,40.438885,-3.69157,HOTEL,https://www.tripadvisor.com/Hotel_Review-g187514-d229686-Reviews-Hyatt_Regency_Hesperia_Madrid-Madrid.html
229687,Melia Madrid Princesa,5,4.3,3539,#147 of 498 hotels in Madrid,241,493,$232,"Calle Princesa 27, 28008 Madrid Spain",+34 915 41 82 00,40.427277,-3.714175,HOTEL,https://www.tripadvisor.com/Hotel_Review-g187514-d229687-Reviews-Melia_Madrid_Princesa-Madrid.html
229689,Melia Barajas,4,3.9,2296,#250 of 498 hotels in Madrid,159,403,$219,"Avenida de Logroño, 305, 28042 Madrid Spain",+34 917 47 77 00,40.4696,-3.582359,HOTEL,https://www.tripadvisor.com/Hotel_Review-g187514-d229689-Reviews-Melia_Barajas-Madrid.html
230452,Hotel Villa de Barajas,3,3.7,520,#298 of 498 hotels in Madrid,96,198,,"Avenida de Logrono 331, 28042 Madrid Spain",+34 913 29 28 18,40.472935,-3.582253,HOTEL,https://www.tripadvisor.com/Hotel_Review-g187514-d230452-Reviews-Hotel_Villa_de_Barajas-Madrid.html
230839,Hotel Mirador de Chamartin,4,3.7,578,#281 of 498 hotels in Madrid,123,309,,"Calle Arte 14, 28033 Madrid Spain",(+034) 917 680 141,40.483047,-3.670907,HOTEL,https://www.tripadvisor.com/Hotel_Review-g187514-d230839-Reviews-Hotel_Mirador_de_Chamartin-Madrid.html
230841,Sercotel Alcalá 611,4,4.4,482,#118 of 498 hotels in Madrid,95,333,$143,"Calle De Alcalá, 611, 28022 Madrid Spain",+34 917 43 41 30,40.44734,-3.611438,HOTEL,https://www.tripadvisor.com/Hotel_Review-g187514-d230841-Reviews-Sercotel_Alcala_611-Madrid.html
231627,Apartamentos & Suites Internacional,,1.9,11,#472 of 498 hotels in Madrid,,,,"Calle Luis Cabrera 37, 28002 Madrid Spain",+34 915 62 08 38,40.44313,-3.67441,HOTEL,https://www.tripadvisor.com/Hotel_Review-g187514-d231627-Reviews-Apartamentos_Suites_Internacional-Madrid.html
231630,Apartamentos Turisticos G3 Galeon,3,3.9,278,#299 of 498 hotels in Madrid,97,992,,"Calle Francisco Medrano 4, 28020 Madrid Spain",+34 915 71 21 20,40.4587,-3.699345,HOTEL,https://www.tripadvisor.com/Hotel_Review-g187514-d231630-Reviews-Apartamentos_Turisticos_G3_Galeon-Madrid.html
231631,VP Madroño,3,4.4,887,#114 of 498 hotels in Madrid,141,338,,"Calle General Diaz Porlier 101, 28006 Madrid Spain",+34 915 62 52 92,40.435196,-3.676465,HOTEL,https://www.tripadvisor.com/Hotel_Review-g187514-d231631-Reviews-VP_Madrono-Madrid.html
231632,Muralto Madrid Princesa,3,4.3,989,#73 of 498 hotels in Madrid,168,333,,"Calle Buen Suceso, 3, 28008 Madrid Spain",+34 915 42 44 00,40.429176,-3.716836,HOTEL,https://www.tripadvisor.com/Hotel_Review-g187514-d231632-Reviews-Muralto_Madrid_Princesa-Madrid.html
231633,ARTIEM Madrid,4,4.9,1811,#8 of 498 hotels in Madrid,100,259,$157,"Calle Juan Pérez Zúñiga, 20, 28027 Madrid Spain",+34 912 91 15 00,40.442738,-3.648026,HOTEL,https://www.tripadvisor.com/Hotel_Review-g187514-d231633-Reviews-ARTIEM_Madrid-Madrid.html
231634,Intercontinental Madrid By Ihg,5,4.5,2857,#16 of 498 hotels in Madrid,259,795,$312,"Paseo De La Castellana 49, 28046 Madrid Spain",+34 917 00 73 00,40.43634,-3.690228,HOTEL,https://www.tripadvisor.com/Hotel_Review-g187514-d231634-Reviews-Intercontinental_Madrid_By_Ihg-Madrid.html
231636,Hotel Intelier Palacio San Martín,4,4.3,2008,#51 of 498 hotels in Madrid,155,388,,"Pza. San Martín, 5, 28013 Madrid Spain",+34 917 01 50 00,40.418644,-3.706759,HOTEL,https://www.tripadvisor.com/Hotel_Review-g187514-d231636-Reviews-Hotel_Intelier_Palacio_San_Martin-Madrid.html
231637,Hotel Liabeny,4,4.4,4422,#142 of 498 hotels in Madrid,207,448,,"Calle de la Salud 3, 28013 Madrid Spain",+34 915 31 90 00,40.418682,-3.704003,HOTEL,https://www.tripadvisor.com/Hotel_Review-g187514-d231637-Reviews-Hotel_Liabeny-Madrid.html
231639,Hotel Acta Pirámides,3,4.8,93,#27 of 498 hotels in Madrid,115,306,$171,"Paseo de las Acacias, 40, 28005 Madrid Spain",+34 915 17 18 28,40.402527,-3.71135,HOTEL,https://www.tripadvisor.com/Hotel_Review-g187514-d231639-Reviews-Hotel_Acta_Piramides-Madrid.html
231640,Hotel Regente,3,3.7,2129,#212 of 498 hotels in Madrid,149,442,$183,"Calle Mesonero Romanos 9, 28013 Madrid Spain",+34 915 21 29 41,40.41971,-3.704302,HOTEL,https://www.tripadvisor.com/Hotel_Review-g187514-d231640-Reviews-Hotel_Regente-Madrid.html
231642,Aparthotel Tribunal,3,4.7,22,#68 of 697 Specialty lodging in Madrid,121,318,$131,"Calle San Vicente Ferrer 1, 28004 Madrid Spain",+34 915 22 14 55,40.42547,-3.701216,OTHER,https://www.tripadvisor.com/Hotel_Review-g187514-d231642-Reviews-Aparthotel_Tribunal-Madrid.html
231643,Hotel Zenit Abeba,4,3.9,652,#215 of 498 hotels in Madrid,119,298,,"C/ Alcantara 63, 28006 Madrid Spain",+34 914 01 16 50,40.43188,-3.673729,HOTEL,https://www.tripadvisor.com/Hotel_Review-g187514-d231643-Reviews-Hotel_Zenit_Abeba-Madrid.html
232808,Hotel Trafalgar,,3.7,260,#318 of 498 hotels in Madrid,139,596,,"Calle Trafalgar 35, 28010 Madrid Spain",+34 914 45 62 00,40.434105,-3.701738,HOTEL,https://www.tripadvisor.com/Hotel_Review-g187514-d232808-Reviews-Hotel_Trafalgar-Madrid.html
232810,Senorial Hotel,,2.6,128,#475 of 498 hotels in Madrid,100,281,,"Calle Leganitos 41, 28013 Madrid Spain",+34 917 58 09 30,40.4226,-3.71085,HOTEL,https://www.tripadvisor.com/Hotel_Review-g187514-d232810-Reviews-Senorial_Hotel-Madrid.html
232811,HRC Hotel,3,4,864,#224 of 498 hotels in Madrid,56,160,,"Calle Angel 18, 28005 Madrid Spain",+34 913 65 86 00,40.40989,-3.713196,HOTEL,https://www.tripadvisor.com/Hotel_Review-g187514-d232811-Reviews-HRC_Hotel-Madrid.html
232814,Grupotel Mayorazgo,4,4.1,3636,#137 of 498 hotels in Madrid,166,383,$182,"Calle Flor Baja 3, 28013 Madrid Spain",+34 915 47 26 00,40.422096,-3.709658,HOTEL,https://www.tripadvisor.com/Hotel_Review-g187514-d232814-Reviews-Grupotel_Mayorazgo-Madrid.html
232815,Vp Jardín De Recoletos,4,4.5,729,#95 of 498 hotels in Madrid,248,505,$383,"Calle Gil de Santivanes 6, 28001 Madrid Spain",+34 917 81 16 40,40.422337,-3.689088,HOTEL,https://www.tripadvisor.com/Hotel_Review-g187514-d232815-Reviews-Vp_Jardin_De_Recoletos-Madrid.html
232816,The Westin Madrid Cuzco,4,4,1045,#185 of 498 hotels in Madrid,208,671,,"Paseo De La Castellana 133, 28046 Madrid Spain",+34 915 56 06 00,40.45899,-3.69072,HOTEL,https://www.tripadvisor.com/Hotel_Review-g187514-d232816-Reviews-The_Westin_Madrid_Cuzco-Madrid.html
232817,Avani Alonso Martínez Madrid Hotel,4,4.3,1405,#149 of 498 hotels in Madrid,126,360,$225,"Calle de Santa Engracia 5, 28010 Madrid Spain",+34 915 94 02 13,40.428673,-3.696185,HOTEL,https://www.tripadvisor.com/Hotel_Review-g187514-d232817-Reviews-Avani_Alonso_Martinez_Madrid_Hotel-Madrid.html
232818,Hotel Sterling,3,3.7,933,#296 of 498 hotels in Madrid,129,355,$155,"Calle San Bernardo 29-31, 28015 Madrid Spain",+34 915 42 04 00,40.42303,-3.707661,HOTEL,https://www.tripadvisor.com/Hotel_Review-g187514-d232818-Reviews-Hotel_Sterling-Madrid.html
232819,Hotel Preciados,4,4.6,4873,#101 of 498 hotels in Madrid,163,430,,"C/ Preciados 37 Esquina con Santo Domingo Plaza, 28013 Madrid Spain",+34 914 54 44 00,40.419693,-3.707505,HOTEL,https://www.tripadvisor.com/Hotel_Review-g187514-d232819-Reviews-Hotel_Preciados-Madrid.html
232823,Hotel Negresco Gran Via,2,3.7,18,#406 of 498 hotels in Madrid,92,252,,"Calle Mesonero Romanos 12, 28013 Madrid Spain",+34 917 37 87 00,40.41961,-3.704199,HOTEL,https://www.tripadvisor.com/Hotel_Review-g187514-d232823-Reviews-Hotel_Negresco_Gran_Via-Madrid.html
232824,Relais & Châteaux Hotel Orfila,5,4.8,1999,#7 of 498 hotels in Madrid,402,845,$560,"Calle De Orfila 6, 28010 Madrid Spain",+34 917 02 77 70,40.427357,-3.693207,HOTEL,https://www.tripadvisor.com/Hotel_Review-g187514-d232824-Reviews-Relais_Chateaux_Hotel_Orfila-Madrid.html
232826,Cantabrico Hotel,,2.3,48,#474 of 498 hotels in Madrid,,,,"Calle Cruz 5, 28012 Madrid Spain",+34 915 31 01 30,40.41615,-3.70082,HOTEL,https://www.tripadvisor.com/Hotel_Review-g187514-d232826-Reviews-Cantabrico_Hotel-Madrid.html
234286,Espahotel Gran Via,3,3.8,655,#247 of 498 hotels in Madrid,122,284,$160,"Calle Gran Via 65, 28013 Madrid Spain",+34 915 41 31 70,40.42259,-3.710006,HOTEL,https://www.tripadvisor.com/Hotel_Review-g187514-d234286-Reviews-Espahotel_Gran_Via-Madrid.html
234287,Hotel Zenit Conde de Orgaz,4,3.8,524,#268 of 498 hotels in Madrid,100,303,,"Calle Moscatelar 24, 28043 Madrid Spain",+34 917 48 97 60,40.456768,-3.64761,HOTEL,https://www.tripadvisor.com/Hotel_Review-g187514-d234287-Reviews-Hotel_Zenit_Conde_de_Orgaz-Madrid.html
234288,Líbere Madrid Chamberí,3,3.9,21,#178 of 697 Specialty lodging in Madrid,139,362,$161,"8 Calle de José Abascal Chamberi, 28003 Madrid Spain",+34 919 49 60 80,40.43853,-3.700887,OTHER,https://www.tripadvisor.com/Hotel_Review-g187514-d234288-Reviews-Libere_Madrid_Chamberi-Madrid.html
234289,Suites Hotel - Foxa 25,4,3.5,67,#394 of 498 hotels in Madrid,,,,"Calle Agustin de Foxa 25, 28046 Madrid Spain",+34 913 23 11 19,40.4705,-3.68543,HOTEL,https://www.tripadvisor.com/Hotel_Review-g187514-d234289-Reviews-Suites_Hotel_Foxa_25-Madrid.html
234290,Suite Prado Hotel,4,4.1,352,#54 of 697 Specialty lodging in Madrid,142,434,,"Calle Manuel Fernandez y Gonzalez 10, 28014 Madrid Spain",+34 914 20 23 18,40.415096,-3.699025,OTHER,https://www.tripadvisor.com/Hotel_Review-g187514-d234290-Reviews-Suite_Prado_Hotel-Madrid.html
234292,1881 Madrid Ventas Hotel,4,4.7,48,#234 of 498 hotels in Madrid,114,1158,,"Calle Alcala 269 Cdad, 28027 Madrid Spain",+34 913 26 16 20,40.432117,-3.656609,HOTEL,https://www.tripadvisor.com/Hotel_Review-g187514-d234292-Reviews-1881_Madrid_Ventas_Hotel-Madrid.html
234293,Hotel Principe Pio,3,4.1,2249,#74 of 498 hotels in Madrid,122,354,,"Cuesta de San Vicente 14, 28008 Madrid Spain",+34 915 47 08 00,40.42116,-3.714634,HOTEL,https://www.tripadvisor.com/Hotel_Review-g187514-d234293-Reviews-Hotel_Principe_Pio-Madrid.html
234296,Aparthotel Quo Eraso,3,3.6,215,#322 of 498 hotels in Madrid,110,220,,"Calle Ardemans 13 Esq Eraso 7, 28028 Madrid Spain",+34 689 35 75 33,40.433933,-3.671845,HOTEL,https://www.tripadvisor.com/Hotel_Review-g187514-d234296-Reviews-Aparthotel_Quo_Eraso-Madrid.html
234299,Hotel Puerta de Toledo,3,4.1,1469,#164 of 498 hotels in Madrid,124,286,,"Glorieta Puerta de Toledo 4, 28005 Madrid Spain",+34 914 74 71 00,40.406322,-3.712282,HOTEL,https://www.tripadvisor.com/Hotel_Review-g187514-d234299-Reviews-Hotel_Puerta_de_Toledo-Madrid.html
234300,Nuria Hotel,,2.6,63,#466 of 498 hotels in Madrid,120,229,,"Calle Fuencarral 52, 28004 Madrid Spain",+34 915 31 92 08,40.42349,-3.70058,HOTEL,https://www.tripadvisor.com/Hotel_Review-g187514-d234300-Reviews-Nuria_Hotel-Madrid.html
234301,Ibis Styles Madrid Prado,3,4.2,1599,#153 of 498 hotels in Madrid,135,328,$220,"Calle Prado 11, 28014 Madrid Spain",+34 913 69 02 34,40.414886,-3.698908,HOTEL,https://www.tripadvisor.com/Hotel_Review-g187514-d234301-Reviews-Ibis_Styles_Madrid_Prado-Madrid.html
234302,H10 Villa de la Reina,4,4.4,1069,#82 of 498 hotels in Madrid,162,443,$318,"Calle Gran Via 22, 28013 Madrid Spain",+34 915 23 91 01,40.420017,-3.70028,HOTEL,https://www.tripadvisor.com/Hotel_Review-g187514-d234302-Reviews-H10_Villa_de_la_Reina-Madrid.html
234306,Diana Plus Hotel,4,2.4,17,#491 of 498 hotels in Madrid,,,,"Carretera Villaverde a Vallecas Km 3 5, 28041 Madrid Spain",,40.36619,-3.654376,HOTEL,https://www.tripadvisor.com/Hotel_Review-g187514-d234306-Reviews-Diana_Plus_Hotel-Madrid.html
234308,Espahotel Plaza Basilica,3,3.6,230,#336 of 498 hotels in Madrid,124,275,,"Calle Aviador Zorita 27-31, 28020 Madrid Spain",+34 915 35 36 42,40.44965,-3.698299,HOTEL,https://www.tripadvisor.com/Hotel_Review-g187514-d234308-Reviews-Espahotel_Plaza_Basilica-Madrid.html
234309,Pierre & Vacances Apartamentos Edificio Eurobuilding 2,4,3.8,44,#376 of 498 hotels in Madrid,124,304,$163,"Calle de Orense 69 Tetuán, 28020 Madrid Spain",+34 919 03 01 26,40.45865,-3.694573,HOTEL,https://www.tripadvisor.com/Hotel_Review-g187514-d234309-Reviews-Pierre_Vacances_Apartamentos_Edificio_Eurobuilding_2-Madrid.html
236201,Hostal Dulcinea,2,4.1,187,#294 of 498 hotels in Madrid,115,134,,"Calle Cervantes 19, 28014 Madrid Spain",+34 914 29 93 09,40.414307,-3.69642,HOTEL,https://www.tripadvisor.com/Hotel_Review-g187514-d236201-Reviews-Hostal_Dulcinea-Madrid.html
236232,Itc Mora By Soho Boutique,2,3.7,514,#292 of 498 hotels in Madrid,90,278,$125,"Paseo del Prado 32 Downtown, 28014 Madrid Spain",+34 914 20 15 69,40.411224,-3.692925,HOTEL,https://www.tripadvisor.com/Hotel_Review-g187514-d236232-Reviews-Itc_Mora_By_Soho_Boutique-Madrid.html
237161,Monaco,,2,4,#455 of 498 hotels in Madrid,,,,"Calle Barbieri 5, 28004 Madrid Spain",+34 915 22 46 30,40.42088,-3.69826,HOTEL,https://www.tripadvisor.com/Hotel_Review-g187514-d237161-Reviews-Monaco-Madrid.html
237163,Residencia de El Viso,,2,2,#450 of 498 hotels in Madrid,,,,"Calle Nervion 8, 28002 Madrid Spain",+34 915 64 03 70,40.4467,-3.6838,HOTEL,https://www.tripadvisor.com/Hotel_Review-g187514-d237163-Reviews-Residencia_de_El_Viso-Madrid.html
237164,Hotel Mexico,2,3.4,161,#378 of 498 hotels in Madrid,85,242,,"Calle Gobernador 24, 28014 Madrid Spain",+34 914 29 25 00,40.411537,-3.694158,HOTEL,https://www.tripadvisor.com/Hotel_Review-g187514-d237164-Reviews-Hotel_Mexico-Madrid.html
238637,Hotel Francisco I,4,4.4,2515,#69 of 498 hotels in Madrid,207,505,$294,"15 Calle Del Arenal, 28013 Madrid Spain",+34 915 48 02 04,40.41746,-3.707598,HOTEL,https://www.tripadvisor.com/Hotel_Review-g187514-d238637-Reviews-Hotel_Francisco_I-Madrid.html
238657,BYPILLOW Velázquez 45,3,4.1,107,#316 of 498 hotels in Madrid,142,385,,"Calle Velazquez 45, 28001 Madrid Spain",+34 914 35 07 60,40.42708,-3.68413,HOTEL,https://www.tripadvisor.com/Hotel_Review-g187514-d238657-Reviews-BYPILLOW_Velazquez_45-Madrid.html
239007,Hotel Miguel Angel,5,3.4,1024,#315 of 498 hotels in Madrid,,,,"Calle Miguel Angel 29-31, 28010 Madrid Spain",+34 914 42 00 22,40.43765,-3.691298,HOTEL,https://www.tripadvisor.com/Hotel_Review-g187514-d239007-Reviews-Hotel_Miguel_Angel-Madrid.html
239009,Hotel Fénix Gran Meliá - The Leading Hotels of the World,5,4.6,3257,#12 of 498 hotels in Madrid,396,696,,"Calle de Hermosilla 2, 28001 Madrid Spain",+34 914 31 67 00,40.42639,-3.6893030000000002,HOTEL,https://www.tripadvisor.com/Hotel_Review-g187514-d239009-Reviews-Hotel_Fenix_Gran_Melia_The_Leading_Hotels_of_the_World-Madrid.html
239053,Hostal Buenos Aires,3,3.8,134,#312 of 498 hotels in Madrid,85,344,,"Calle Gran Via 61, 28013 Madrid Spain",+34 915 42 01 02,40.42237,-3.70962,HOTEL,https://www.tripadvisor.com/Hotel_Review-g187514-d239053-Reviews-Hostal_Buenos_Aires-Madrid.html
239056,Hostal Gonzalo,2,4.6,342,#27 of 697 Specialty lodging in Madrid,104,142,,"Calle Cervantes 34 3rd Floor, 28014 Madrid Spain",+34 914 29 27 14,40.4142,-3.696209,OTHER,https://www.tripadvisor.com/Hotel_Review-g187514-d239056-Reviews-Hostal_Gonzalo-Madrid.html
239057,Hostal Residencia Americano,2,3.2,69,#419 of 498 hotels in Madrid,159,479,,"Plaza Puerta del Sol 11, 28013 Madrid Spain",+34 915 22 28 22,40.417175,-3.703947,HOTEL,https://www.tripadvisor.com/Hotel_Review-g187514-d239057-Reviews-Hostal_Residencia_Americano-Madrid.html
239065,Hostal la Perla Asturiana,2,4,326,#274 of 498 hotels in Madrid,81,201,,"Plaza Santa Cruz 3, 28012 Madrid Spain",+34 913 66 46 00,40.415115,-3.705704,HOTEL,https://www.tripadvisor.com/Hotel_Review-g187514-d239065-Reviews-Hostal_la_Perla_Asturiana-Madrid.html
239080,Hotel Paris,2,3.9,25,#400 of 498 hotels in Madrid,,,,"Calle Alcala 2, 28014 Madrid Spain",+34 915 21 64 91,40.41702,-3.7021,HOTEL,https://www.tripadvisor.com/Hotel_Review-g187514-d239080-Reviews-Hotel_Paris-Madrid.html
239091,Hotel Residencia Lisboa,3,4.1,166,#42 of 361 B&Bs / Inns in Madrid,93,267,,"Calle Ventura de La Vega 17, 28014 Madrid Spain",+34 914 29 46 76,40.41523,-3.698935,BB,https://www.tripadvisor.com/Hotel_Review-g187514-d239091-Reviews-Hotel_Residencia_Lisboa-Madrid.html
239093,Casual del Teatro Madrid,2,4.2,612,#156 of 498 hotels in Madrid,112,332,$154,"Calle Echegaray, 1 Centro, 28014 Madrid Spain",+34 914 29 95 51,40.4164,-3.69957,HOTEL,https://www.tripadvisor.com/Hotel_Review-g187514-d239093-Reviews-Casual_del_Teatro_Madrid-Madrid.html
239408,Hostal Riesco Puerta del Sol,2,4.2,253,#259 of 498 hotels in Madrid,173,183,,"Calle Correo 2 Puerta del Sol, 28012 Madrid Spain",+34 915 22 26 92,40.41645,-3.704304,HOTEL,https://www.tripadvisor.com/Hotel_Review-g187514-d239408-Reviews-Hostal_Riesco_Puerta_del_Sol-Madrid.html
239409,Hostal Rivera,2,3.1,167,#202 of 361 B&Bs / Inns in Madrid,82,105,,"Calle Atocha 79, 28012 Madrid Spain",+34 914 29 61 30,40.41194,-3.69807,BB,https://www.tripadvisor.com/Hotel_Review-g187514-d239409-Reviews-Hostal_Rivera-Madrid.html
239410,Hostal Sil & Serranos,2,4.3,150,#273 of 498 hotels in Madrid,117,189,,"Calle Fuencarral 95, 28004 Madrid Spain",+34 914 48 89 72,40.42716,-3.701703,HOTEL,https://www.tripadvisor.com/Hotel_Review-g187514-d239410-Reviews-Hostal_Sil_Serranos-Madrid.html
239411,Hostal Sonsoles,2,4.1,228,#55 of 697 Specialty lodging in Madrid,99,235,,"Calle Fuencarral 18 2º Drcha, 28004 Madrid Spain",+34 915 32 08 28,40.421722,-3.700918,OTHER,https://www.tripadvisor.com/Hotel_Review-g187514-d239411-Reviews-Hostal_Sonsoles-Madrid.html
239413,Hostal-Residencia Gloria,,1,5,#488 of 498 hotels in Madrid,,,,"Calle Conde de Xiquena 4, 28004 Madrid Spain",+34 915 22 04 42,40.4223,-3.69407,HOTEL,https://www.tripadvisor.com/Hotel_Review-g187514-d239413-Reviews-Hostal_Residencia_Gloria-Madrid.html
239414,Armesto Rooms,2,3.9,132,#337 of 498 hotels in Madrid,114,337,,"Calle San Agustin 6, 28014 Madrid Spain",+34 914 29 90 31,40.41482,-3.696995,HOTEL,https://www.tripadvisor.com/Hotel_Review-g187514-d239414-Reviews-Armesto_Rooms-Madrid.html
239415,Hostal Residencia La Coruna,,2.5,2,#448 of 498 hotels in Madrid,,,,"Paseo Prado 12, 28014 Madrid Spain",+34 914 29 25 43,40.41435,-3.69428,HOTEL,https://www.tripadvisor.com/Hotel_Review-g187514-d239415-Reviews-Hostal_Residencia_La_Coruna-Madrid.html
239417,Pension Jaen,,4.4,102,#308 of 498 hotels in Madrid,96,122,,"Calle Cervantes 5, 28014 Madrid Spain",+34 912 49 48 58,40.41436,-3.69811,HOTEL,https://www.tripadvisor.com/Hotel_Review-g187514-d239417-Reviews-Pension_Jaen-Madrid.html
239419,Posada Del Dragón,4,4.3,903,#160 of 498 hotels in Madrid,112,348,,"Calle Cava Baja 14, 28005 Madrid Spain",+34 911 19 14 24,40.41311,-3.708547,HOTEL,https://www.tripadvisor.com/Hotel_Review-g187514-d239419-Reviews-Posada_Del_Dragon-Madrid.html
239422,Albergue Juvenil Santa Cruz de Marcenado,,3.1,32,#432 of 498 hotels in Madrid,,,,"Calle Santa Cruz de Marcenado 28, 28015 Madrid Spain",+34 915 47 45 32,40.42978,-3.71321,HOTEL,https://www.tripadvisor.com/Hotel_Review-g187514-d239422-Reviews-Albergue_Juvenil_Santa_Cruz_de_Marcenado-Madrid.html
239423,Apartamentos Juan Bravo,3,4,319,#280 of 498 hotels in Madrid,96,258,,"Calle Juan Bravo 58-60, 28006 Madrid Spain",+34 914 02 98 00,40.4323,-3.674177,HOTEL,https://www.tripadvisor.com/Hotel_Review-g187514-d239423-Reviews-Apartamentos_Juan_Bravo-Madrid.html
239430,Hostal Benamar,3,4.4,260,#246 of 498 hotels in Madrid,128,176,,"Calle San Mateo 20 nº 20 2º y 3º Dcha., 28004 Madrid Spain",+34 913 08 00 92,40.42572,-3.698875,HOTEL,https://www.tripadvisor.com/Hotel_Review-g187514-d239430-Reviews-Hostal_Benamar-Madrid.html
239431,Hostal Delvi,,3,5,#441 of 498 hotels in Madrid,,,,"Plaza Santa Ana 15 3rd Floor, 28012 Madrid Spain",+34 915 22 59 98,40.41491,-3.70141,HOTEL,https://www.tripadvisor.com/Hotel_Review-g187514-d239431-Reviews-Hostal_Delvi-Madrid.html
239432,Hostal Filo,,0,0,,,,,"Plaza Santa Ana 15 2nd Floor, 28012 Madrid Spain",+34 915 22 40 56,40.41491,-3.70141,HOTEL,https://www.tripadvisor.com/Hotel_Review-g187514-d239432-Reviews-Hostal_Filo-Madrid.html
239433,Hostal Hispano Gran Via,2,4.1,221,#39 of 361 B&Bs / Inns in Madrid,95,258,,"Calle Hortaleza 38 2nd Floor, 28004 Madrid Spain",+34 915 21 87 80,40.421917,-3.699912,BB,https://www.tripadvisor.com/Hotel_Review-g187514-d239433-Reviews-Hostal_Hispano_Gran_Via-Madrid.html
240863,ILUNION Suites Madrid,4,4.3,2187,#127 of 498 hotels in Madrid,109,323,$147,"Calle Lopez de Hoyos 143, 28002 Madrid Spain",+34 917 44 50 00,40.447796,-3.669055,HOTEL,https://www.tripadvisor.com/Hotel_Review-g187514-d240863-Reviews-ILUNION_Suites_Madrid-Madrid.html
249007,Hotel Suites Barrio de Salamanca,4,3.7,154,#358 of 498 hotels in Madrid,144,310,,"Calle General Oraa 17, 28006 Madrid Spain",+34 918 25 59 00,40.436375,-3.685762,HOTEL,https://www.tripadvisor.com/Hotel_Review-g187514-d249007-Reviews-Hotel_Suites_Barrio_de_Salamanca-Madrid.html
250777,Hotel Cortezo,3,3.7,1127,#272 of 498 hotels in Madrid,150,405,,"Calle Doctor Cortezo 3, 28012 Madrid Spain",+34 913 69 01 01,40.41372,-3.70352,HOTEL,https://www.tripadvisor.com/Hotel_Review-g187514-d250777-Reviews-Hotel_Cortezo-Madrid.html
251999,Astoria Hostal,2,4,419,#29 of 361 B&Bs / Inns in Madrid,94,266,$124,"Carrera San Jeronimo 30-32, 5th floor, 28014 Madrid Spain",+34 914 29 11 88,40.41638,-3.699252,BB,https://www.tripadvisor.com/Hotel_Review-g187514-d251999-Reviews-Astoria_Hostal-Madrid.html
255206,Casa De Las Artes Melia Collection,4,4.5,82,#230 of 498 hotels in Madrid,252,519,,"Calle de Atocha, 83 Centro, 28012 Madrid Spain",+34 913 30 05 00,40.41174,-3.697468,HOTEL,https://www.tripadvisor.com/Hotel_Review-g187514-d255206-Reviews-Casa_De_Las_Artes_Melia_Collection-Madrid.html
256007,Eurostars Puerta Madrid,4,3.9,1124,#222 of 498 hotels in Madrid,109,324,,"C. Juan Rizi, 5, 28027 Madrid Spain",+34 917 43 83 00,40.4478,-3.635978,HOTEL,https://www.tripadvisor.com/Hotel_Review-g187514-d256007-Reviews-Eurostars_Puerta_Madrid-Madrid.html
259355,Room Mate Macarena - Gran Vía,3,4.7,277,#56 of 498 hotels in Madrid,168,436,,"Calle Gran Via 43, 28013 Madrid Spain",+34 911 16 11 91,40.42063,-3.70689,HOTEL,https://www.tripadvisor.com/Hotel_Review-g187514-d259355-Reviews-Room_Mate_Macarena_Gran_Via-Madrid.html
262303,Eco Via Lusitana,3,3.5,325,#362 of 498 hotels in Madrid,89,168,,"Calle De La Secoya 2, 28044 Madrid Spain",+34 915 11 03 80,40.37275,-3.742245,HOTEL,https://www.tripadvisor.com/Hotel_Review-g187514-d262303-Reviews-Eco_Via_Lusitana-Madrid.html
264232,Hostal Adriano,2,4.2,427,#202 of 498 hotels in Madrid,105,218,,"Calle Cruz 26 4th Floor, 28012 Madrid Spain",+34 915 21 13 39,40.414936,-3.702633,HOTEL,https://www.tripadvisor.com/Hotel_Review-g187514-d264232-Reviews-Hostal_Adriano-Madrid.html
264235,Hostal Lopez,,3.5,75,#381 of 498 hotels in Madrid,,,,"Calle de las Huertas, 28014 Madrid Spain",+34 914 29 43 49,40.41336,-3.69747,HOTEL,https://www.tripadvisor.com/Hotel_Review-g187514-d264235-Reviews-Hostal_Lopez-Madrid.html
266361,Hostal San Isidro,2,3.6,130,#199 of 697 Specialty lodging in Madrid,69,514,,"Calle Principe 17, 28012 Madrid Spain",+34 914 29 15 91,40.41537,-3.70022,OTHER,https://www.tripadvisor.com/Hotel_Review-g187514-d266361-Reviews-Hostal_San_Isidro-Madrid.html
266365,Hotel Regina,3,4.3,4337,#54 of 498 hotels in Madrid,241,721,,"19 Alcala Street, 28014 Madrid Spain",+34 915 21 47 25,40.41796,-3.699865,HOTEL,https://www.tripadvisor.com/Hotel_Review-g187514-d266365-Reviews-Hotel_Regina-Madrid.html
266366,Los Amigos Hostel,1,3.9,217,#83 of 697 Specialty lodging in Madrid,205,244,,"Calle Arenal, no 26, 4th Floor, 28046 Madrid Spain",,40.41779,-3.70819,OTHER,https://www.tripadvisor.com/Hotel_Review-g187514-d266366-Reviews-Los_Amigos_Hostel-Madrid.html
266529,Hotel Europa,3,4.4,3912,#117 of 498 hotels in Madrid,141,477,,"Calle Carmen 4, 28013 Madrid Spain",+34 915 21 29 00,40.417458,-3.703504,HOTEL,https://www.tripadvisor.com/Hotel_Review-g187514-d266529-Reviews-Hotel_Europa-Madrid.html
266705,Hotel Infanta Mercedes,2,3.6,391,#320 of 498 hotels in Madrid,71,163,,"Calle Huesca 21 Esquina Infanta Mercedes, 28020 Madrid Spain",+34 915 70 33 33,40.458008,-3.698452,HOTEL,https://www.tripadvisor.com/Hotel_Review-g187514-d266705-Reviews-Hotel_Infanta_Mercedes-Madrid.html
269026,Hostal San Lorenzo,3,3.6,84,#344 of 498 hotels in Madrid,96,260,$199,"Calle Clavel 8, 28004 Madrid Spain",+34 915 21 30 57,40.420403,-3.699234,HOTEL,https://www.tripadvisor.com/Hotel_Review-g187514-d269026-Reviews-Hostal_San_Lorenzo-Madrid.html
269149,Hostal Cervelo,2,3.8,229,#66 of 697 Specialty lodging in Madrid,99,272,,"Calle Atocha 43, 28012 Madrid Spain",+34 914 29 95 94,40.413433,-3.700917,OTHER,https://www.tripadvisor.com/Hotel_Review-g187514-d269149-Reviews-Hostal_Cervelo-Madrid.html
269151,Hotel Mediodia,2,3.8,1368,#228 of 498 hotels in Madrid,131,352,,"Plaza Emperador Carlos V 8 Primer Piso, 28012 Madrid Spain",+34 915 27 30 60,40.408485,-3.69296,HOTEL,https://www.tripadvisor.com/Hotel_Review-g187514-d269151-Reviews-Hotel_Mediodia-Madrid.html
271764,Hostal Oporto,2,3.7,225,#354 of 498 hotels in Madrid,74,330,$91,"Calle Zorrilla 9, 28014 Madrid Spain",+34 914 29 78 56,40.416737,-3.697223,HOTEL,https://www.tripadvisor.com/Hotel_Review-g187514-d271764-Reviews-Hostal_Oporto-Madrid.html
273808,Hostal Castilla II Puerta del Sol,2,3.6,314,#117 of 697 Specialty lodging in Madrid,99,290,$153,"Calle del Marqués Viudo de Pontejos 2, 28012 Madrid Spain",+34 646 74 15 35,40.415794,-3.704946,OTHER,https://www.tripadvisor.com/Hotel_Review-g187514-d273808-Reviews-Hostal_Castilla_II_Puerta_del_Sol-Madrid.html
275116,Catalonia Puerta Del Sol,4,4.5,1362,#50 of 498 hotels in Madrid,181,465,$369,"Calle Atocha 23, 28012 Madrid Spain",+34 913 69 71 71,40.413998,-3.7029,HOTEL,https://www.tripadvisor.com/Hotel_Review-g187514-d275116-Reviews-Catalonia_Puerta_Del_Sol-Madrid.html
275118,Madrid Marriott Auditorium Hotel & Conference Center,4,4,2869,#186 of 498 hotels in Madrid,151,341,$153,"Avenida De Aragon No 400, 28022 Madrid Spain",+34 914 00 44 00,40.44906,-3.558685,HOTEL,https://www.tripadvisor.com/Hotel_Review-g187514-d275118-Reviews-Madrid_Marriott_Auditorium_Hotel_Conference_Center-Madrid.html
275122,Petit Palace Chueca,3,4.3,1958,#25 of 498 hotels in Madrid,157,395,$200,"Calle de Hortaleza, 3, 28004 Madrid Spain",+34 689 83 18 77,40.420364,-3.701081,HOTEL,https://www.tripadvisor.com/Hotel_Review-g187514-d275122-Reviews-Petit_Palace_Chueca-Madrid.html
277270,Abba Madrid Hotel,4,4,739,#208 of 498 hotels in Madrid,154,411,$193,"Avenida America 32, 28028 Madrid Spain",+34 912 12 50 00,40.438915,-3.672742,HOTEL,https://www.tripadvisor.com/Hotel_Review-g187514-d277270-Reviews-Abba_Madrid_Hotel-Madrid.html
277271,Hotel Porcel Ganivet,3,4.1,2512,#148 of 498 hotels in Madrid,115,284,,"C/ Toledo, 111-113, 28005 Madrid Spain",+34 913 65 36 00,40.408203,-3.710742,HOTEL,https://www.tripadvisor.com/Hotel_Review-g187514-d277271-Reviews-Hotel_Porcel_Ganivet-Madrid.html
277272,Petit Palace Cliper Gran Via,3,4.1,1662,#59 of 498 hotels in Madrid,125,328,,"Calle Chinchilla 6, 28013 Madrid Spain",+34 915 31 17 00,40.419666,-3.703582,HOTEL,https://www.tripadvisor.com/Hotel_Review-g187514-d277272-Reviews-Petit_Palace_Cliper_Gran_Via-Madrid.html
277708,Ac Hotel Los Vascos,3,3.8,224,#314 of 498 hotels in Madrid,170,316,,"Los Vascos,27, 28040 Madrid Spain",+34 915 98 62 20,40.44894,-3.71132,HOTEL,https://www.tripadvisor.com/Hotel_Review-g187514-d277708-Reviews-Ac_Hotel_Los_Vascos-Madrid.html
278916,Forum Hotel,,3.6,12,#421 of 498 hotels in Madrid,,,,"Camino Zarzuela 23, 28023 Madrid Spain",+34 902 29 22 93,40.46516,-3.78635,HOTEL,https://www.tripadvisor.com/Hotel_Review-g187514-d278916-Reviews-Forum_Hotel-Madrid.html
279006,Eurostars Suites Mirasierra,5,4.1,1156,#184 of 498 hotels in Madrid,147,289,$154,"Calle Alfredo Marquerie 43, 28034 Madrid Spain",+34 917 27 79 00,40.48662,-3.703555,HOTEL,https://www.tripadvisor.com/Hotel_Review-g187514-d279006-Reviews-Eurostars_Suites_Mirasierra-Madrid.html
279272,Hotel Porcel TorreGarden,3,4.1,917,#178 of 498 hotels in Madrid,92,203,,"Calle de los Hermanos García Noblejas, 190 Bis, 28037 Madrid Spain",+34 913 13 58 10,40.419346,-3.62543,HOTEL,https://www.tripadvisor.com/Hotel_Review-g187514-d279272-Reviews-Hotel_Porcel_TorreGarden-Madrid.html
281110,Los Jeronimos,3,3.9,30,#415 of 498 hotels in Madrid,,,,"Calle Moreto 9, 28014 Madrid Spain",+34 914 20 02 11,40.41407,-3.69023,HOTEL,https://www.tripadvisor.com/Hotel_Review-g187514-d281110-Reviews-Los_Jeronimos-Madrid.html
281116,7 Islas Hotel,4,4.3,2064,#86 of 498 hotels in Madrid,162,592,$229,"Calle Valverde 14, 28004 Madrid Spain",+34 915 23 46 88,40.421246,-3.701913,HOTEL,https://www.tripadvisor.com/Hotel_Review-g187514-d281116-Reviews-7_Islas_Hotel-Madrid.html
282622,Hotel Ateneo Puerta del Sol,3,3.9,431,#264 of 498 hotels in Madrid,120,259,,"Calle Montera 22, 28013 Madrid Spain",+34 915 21 20 12,40.418247,-3.702483,HOTEL,https://www.tripadvisor.com/Hotel_Review-g187514-d282622-Reviews-Hotel_Ateneo_Puerta_del_Sol-Madrid.html
282741,Elba Madrid Alcalá,4,4,275,#248 of 498 hotels in Madrid,119,310,$164,"Calle de Alcala, 476, 28027 Madrid Spain",+34 913 75 68 00,40.43928,-3.631733,HOTEL,https://www.tripadvisor.com/Hotel_Review-g187514-d282741-Reviews-Elba_Madrid_Alcala-Madrid.html
283627,Hostal Cruz Sol,2,4.1,331,#277 of 498 hotels in Madrid,96,137,,"Plaza Santa Cruz 6 Pl, 28012 Madrid Spain",,40.415104,-3.705603,HOTEL,https://www.tripadvisor.com/Hotel_Review-g187514-d283627-Reviews-Hostal_Cruz_Sol-Madrid.html
283628,Hostal Aresol,2,4.1,131,#72 of 697 Specialty lodging in Madrid,106,138,,"Calle Arenal 6 3rd Floor, 28013 Madrid Spain",+34 915 21 58 67,40.416958,-3.705186,OTHER,https://www.tripadvisor.com/Hotel_Review-g187514-d283628-Reviews-Hostal_Aresol-Madrid.html
283629,Hostal Aliste,2,4.2,207,#36 of 361 B&Bs / Inns in Madrid,117,590,,"Calle Caballero de Gracia 6 Planta 3 Puerta 1, 28013 Madrid Spain",+34 915 21 59 79,40.41966,-3.701106,BB,https://www.tripadvisor.com/Hotel_Review-g187514-d283629-Reviews-Hostal_Aliste-Madrid.html
286340,Albergue Juvenil San Fermin,,3.6,26,#407 of 498 hotels in Madrid,,,,"Avenida Fueros 36, 28041 Madrid Spain",+34 917 92 08 97,40.37034,-3.68861,HOTEL,https://www.tripadvisor.com/Hotel_Review-g187514-d286340-Reviews-Albergue_Juvenil_San_Fermin-Madrid.html
286358,B&B HOTEL Madrid Centro Plaza Mayor,2,4,869,#221 of 498 hotels in Madrid,118,271,$149,"Calle de Atocha, 2, 28012 Madrid Spain",+34 913 60 06 06,40.41462,-3.705511,HOTEL,https://www.tripadvisor.com/Hotel_Review-g187514-d286358-Reviews-B_B_HOTEL_Madrid_Centro_Plaza_Mayor-Madrid.html
289298,Hostal Marlasca,2,3.7,724,#35 of 361 B&Bs / Inns in Madrid,100,248,,"Calle Cruz 14 2nd Floor, 28012 Madrid Spain",+34 915 21 48 38,40.415676,-3.701743,BB,https://www.tripadvisor.com/Hotel_Review-g187514-d289298-Reviews-Hostal_Marlasca-Madrid.html
289304,Hostal Santillan,2,4.4,494,#17 of 697 Specialty lodging in Madrid,107,153,,"Calle Gran Via 64 Floor 8, 28013 Madrid Spain",+34 915 48 23 28,40.42227,-3.708723,OTHER,https://www.tripadvisor.com/Hotel_Review-g187514-d289304-Reviews-Hostal_Santillan-Madrid.html
289411,Hotel Fictissio,,0,0,,,,,"Calle Orense 81, 28020 Madrid Spain",,40.45973,-3.69449,HOTEL,https://www.tripadvisor.com/Hotel_Review-g187514-d289411-Reviews-Hotel_Fictissio-Madrid.html
289421,Hotel Quatro Puerta del Sol,4,3.9,1172,#233 of 498 hotels in Madrid,166,426,$227,"Calle Sevilla 4, 28014 Madrid Spain",+34 915 32 90 49,40.417088,-3.699961,HOTEL,https://www.tripadvisor.com/Hotel_Review-g187514-d289421-Reviews-Hotel_Quatro_Puerta_del_Sol-Madrid.html
289423,Vincci Centrum,4,4.2,1869,#58 of 498 hotels in Madrid,169,559,,"Calle Cedaceros 4, 28014 Madrid Spain",+34 911 81 02 00,40.41754,-3.698456,HOTEL,https://www.tripadvisor.com/Hotel_Review-g187514-d289423-Reviews-Vincci_Centrum-Madrid.html
289424,Exe Zarzuela Park,3,3.8,560,#293 of 498 hotels in Madrid,80,255,$71,"Calle Darío Aparicio, 32, 28023 Madrid Spain",+34 912 11 49 00,40.470955,-3.76881,HOTEL,https://www.tripadvisor.com/Hotel_Review-g187514-d289424-Reviews-Exe_Zarzuela_Park-Madrid.html
289577,Hostal Mirentxu,1,3.8,86,#122 of 361 B&Bs / Inns in Madrid,,,,"Calle Zorrilla 7, 28014 Madrid Spain",+34 914 29 81 84,40.41677,-3.69747,BB,https://www.tripadvisor.com/Hotel_Review-g187514-d289577-Reviews-Hostal_Mirentxu-Madrid.html
289578,Hostal Barrera,2,4.5,322,#192 of 498 hotels in Madrid,103,199,,"Calle Atocha 96 Floor 2, 28012 Madrid Spain",+34 915 27 53 81,40.410656,-3.695861,HOTEL,https://www.tripadvisor.com/Hotel_Review-g187514-d289578-Reviews-Hostal_Barrera-Madrid.html
289579,C. H. Chelo,2.5,4.2,137,#65 of 697 Specialty lodging in Madrid,61,163,,"Hortaleza 17, 3 Izquierda, 28004 Madrid Spain",+34 915 32 70 33,40.421474,-3.70028,OTHER,https://www.tripadvisor.com/Hotel_Review-g187514-d289579-Reviews-C_H_Chelo-Madrid.html
289584,Hostal Playa,2,3.3,43,#166 of 361 B&Bs / Inns in Madrid,,,,"C/ Victoria 2 4th Left, 28012 Madrid Spain",+34 657 20 20 20,40.41648,-3.701739,BB,https://www.tripadvisor.com/Hotel_Review-g187514-d289584-Reviews-Hostal_Playa-Madrid.html
289608,Hostal Las Fuentes,2,4.3,1480,#111 of 498 hotels in Madrid,78,264,,"Calle de las Fuentes, 10 Plaza de la Opera, 28013 Madrid Spain",+34 682 00 19 02,40.417267,-3.708665,HOTEL,https://www.tripadvisor.com/Hotel_Review-g187514-d289608-Reviews-Hostal_Las_Fuentes-Madrid.html
289613,Hostal Aguilar,2,4.1,193,#34 of 361 B&Bs / Inns in Madrid,141,260,,"Carrera San Jeronimo 32 2 Planta, 28014 Madrid Spain",+34 914 29 59 26,40.41638,-3.698951,BB,https://www.tripadvisor.com/Hotel_Review-g187514-d289613-Reviews-Hostal_Aguilar-Madrid.html
289652,Pension Corbero,1,4.4,72,#60 of 361 B&Bs / Inns in Madrid,117,248,,"Calle Cervantes 34 Planta 5 1 Izq., 28014 Madrid Spain",+34 914 29 41 71,40.41426,-3.69623,BB,https://www.tripadvisor.com/Hotel_Review-g187514-d289652-Reviews-Pension_Corbero-Madrid.html
289654,Hostal Mino,,0,0,,,,,"Calle Arenal 16, 28013 Madrid Spain",+34 915 31 50 79,40.41729,-3.70643,HOTEL,https://www.tripadvisor.com/Hotel_Review-g187514-d289654-Reviews-Hostal_Mino-Madrid.html
289655,Hostal Horizonte,,3.4,61,#404 of 498 hotels in Madrid,,,,"Calle Atocha No 28, 2 B, 28012 Madrid Spain",+34 913 69 09 96,40.413612,-3.701608,HOTEL,https://www.tripadvisor.com/Hotel_Review-g187514-d289655-Reviews-Hostal_Horizonte-Madrid.html
289661,Plaza D'ort,1,3.4,158,#389 of 498 hotels in Madrid,59,268,,"Plaza Angel 13, 28012 Madrid Spain",+34 914 29 90 41,40.41417,-3.702522,HOTEL,https://www.tripadvisor.com/Hotel_Review-g187514-d289661-Reviews-Plaza_D_ort-Madrid.html
289696,Hostal Massachusetts,,0,0,,,,,"Calle Montera 47 near Gran Vía, 28013 Madrid Spain",+34 915 32 01 69,40.41964,-3.70189,HOTEL,https://www.tripadvisor.com/Hotel_Review-g187514-d289696-Reviews-Hostal_Massachusetts-Madrid.html
291591,Hotel II Castillas,3,4.2,936,#162 of 498 hotels in Madrid,125,442,$129,"Calle Abada 7, 28013 Madrid Spain",+34 915 24 97 50,40.41917,-3.704192,HOTEL,https://www.tripadvisor.com/Hotel_Review-g187514-d291591-Reviews-Hotel_II_Castillas-Madrid.html
296651,Apartamentos Centro Norte,2.5,2.5,28,#470 of 498 hotels in Madrid,323,674,,"Calle de Mauricio Legendre 16, 28046 Madrid Spain",,40.47187,-3.68569,HOTEL,https://www.tripadvisor.com/Hotel_Review-g187514-d296651-Reviews-Apartamentos_Centro_Norte-Madrid.html
296924,ILUNION Alcalá Norte,4,4.2,1325,#99 of 498 hotels in Madrid,106,343,$133,"Calle San Romualdo 30, 28037 Madrid Spain",+34 917 54 84 00,40.436424,-3.621086,HOTEL,https://www.tripadvisor.com/Hotel_Review-g187514-d296924-Reviews-ILUNION_Alcala_Norte-Madrid.html
296931,Petit Palace Arenal,3,4.2,1960,#45 of 498 hotels in Madrid,121,318,$188,"Calle Arenal 16 Puerta del Sol And Mayor Square, 28013 Madrid Spain",+34 679 98 26 43,40.417294,-3.706394,HOTEL,https://www.tripadvisor.com/Hotel_Review-g187514-d296931-Reviews-Petit_Palace_Arenal-Madrid.html
296957,Hotel Urban,5,4.6,3247,#29 of 498 hotels in Madrid,227,465,$287,"Carrera de San Jeronimo, 34, 28014 Madrid Spain",+34 917 87 77 70,40.416447,-3.698603,HOTEL,https://www.tripadvisor.com/Hotel_Review-g187514-d296957-Reviews-Hotel_Urban-Madrid.html
300788,Hostal Gallardo,3,3.4,98,#213 of 697 Specialty lodging in Madrid,,,,"Fuencarral, 95 4 Derecha, 28004 Madrid Spain",+34 915 94 45 75,40.42706,-3.7017,OTHER,https://www.tripadvisor.com/Hotel_Review-g187514-d300788-Reviews-Hostal_Gallardo-Madrid.html
308277,Albergue Juvenil Richard Schirrmann,,2.5,11,#525 of 697 Specialty lodging in Madrid,,,,"Casa de Campo, 28011 Madrid Spain",+34 914 63 56 99,40.41538,-3.78054,OTHER,https://www.tripadvisor.com/Hotel_Review-g187514-d308277-Reviews-Albergue_Juvenil_Richard_Schirrmann-Madrid.html
312318,Apartamentos Goya 75,3,2,111,#498 of 498 hotels in Madrid,115,177,,"Calle General Pardinas 13, 28001 Madrid Spain",+34 914 35 63 46,40.425095,-3.67912,HOTEL,https://www.tripadvisor.com/Hotel_Review-g187514-d312318-Reviews-Apartamentos_Goya_75-Madrid.html
338304,NH Collection Madrid Paseo Del Prado,5,4.4,2184,#89 of 498 hotels in Madrid,221,473,$285,"Plaza Canovas del Castillo 4 Barrio de Las Letras, 28014 Madrid Spain",+34 913 30 24 00,40.414875,-3.6947,HOTEL,https://www.tripadvisor.com/Hotel_Review-g187514-d338304-Reviews-NH_Collection_Madrid_Paseo_Del_Prado-Madrid.html
482966,Hispadomus Pension,,5,1,#445 of 498 hotels in Madrid,,,,"Calle San Bartolome 4, 28004 Madrid Spain",+34 915 23 81 27,40.42134,-3.69868,HOTEL,https://www.tripadvisor.com/Hotel_Review-g187514-d482966-Reviews-Hispadomus_Pension-Madrid.html
488017,Hostal Acapulco,,4.6,726,#8 of 697 Specialty lodging in Madrid,,,,"C\ Salud 13 4º Plaza del Carmen, 28013 Madrid Spain",+34 915 31 19 45,40.41934,-3.703411,OTHER,https://www.tripadvisor.com/Hotel_Review-g187514-d488017-Reviews-Hostal_Acapulco-Madrid.html
496882,El Jardin,,4,1,#444 of 498 hotels in Madrid,,,,"Avenida de Burgos 5, 28036 Madrid Spain",,40.47085,-3.67623,HOTEL,https://www.tripadvisor.com/Hotel_Review-g187514-d496882-Reviews-El_Jardin-Madrid.html
497041,Hostal Numancia,1,2.4,55,#629 of 697 Specialty lodging in Madrid,51,118,,"Calle Magdalena 8 Plaza de Tirso de Molina square, 28012 Madrid Spain",+34 915 30 24 18,40.41234,-3.70256,OTHER,https://www.tripadvisor.com/Hotel_Review-g187514-d497041-Reviews-Hostal_Numancia-Madrid.html
497864,Travelodge Madrid Torrelaguna,3,3.9,897,#146 of 498 hotels in Madrid,65,192,$97,"69th Torrelaguna Street, 28027 Madrid Spain",+34 914 05 73 93,40.444412,-3.655185,HOTEL,https://www.tripadvisor.com/Hotel_Review-g187514-d497864-Reviews-Travelodge_Madrid_Torrelaguna-Madrid.html
498185,Iberostar Las Letras,5,4.4,2193,#61 of 498 hotels in Madrid,348,1394,,"Calle Gran Via 11, 28013 Madrid Spain",,40.41955,-3.699477,HOTEL,https://www.tripadvisor.com/Hotel_Review-g187514-d498185-Reviews-Iberostar_Las_Letras-Madrid.html
498913,Petit Palace Puerta del Sol,3,4.3,1940,#32 of 498 hotels in Madrid,142,353,$202,"Calle del Arenal 4, 28013 Madrid Spain",+34 608 09 94 10,40.416996,-3.705145,HOTEL,https://www.tripadvisor.com/Hotel_Review-g187514-d498913-Reviews-Petit_Palace_Puerta_del_Sol-Madrid.html
501066,Novotel Madrid Center,4,4.2,2704,#193 of 498 hotels in Madrid,185,365,,"Calle o'Donnell 53, 28009 Madrid Spain",+34 912 21 40 60,40.42181,-3.672374,HOTEL,https://www.tripadvisor.com/Hotel_Review-g187514-d501066-Reviews-Novotel_Madrid_Center-Madrid.html
503533,Hotel Gran Legazpi,3,3.6,495,#282 of 498 hotels in Madrid,94,149,$83,"Paseo de la Chopera, 71, 28045 Madrid Spain",+34 618 38 30 53,40.391994,-3.695993,HOTEL,https://www.tripadvisor.com/Hotel_Review-g187514-d503533-Reviews-Hotel_Gran_Legazpi-Madrid.html
503537,Globales Acis & Galatea,3,4,351,#231 of 498 hotels in Madrid,87,284,,"Calle Galatea 6, 28042 Madrid Spain",+34 917 43 49 01,40.450413,-3.613003,HOTEL,https://www.tripadvisor.com/Hotel_Review-g187514-d503537-Reviews-Globales_Acis_Galatea-Madrid.html
503539,Hotel Don Luis,3,3.6,496,#317 of 498 hotels in Madrid,92,178,,"Avenida General 12, 28042 Madrid Spain",+34 913 12 04 30,40.472725,-3.578601,HOTEL,https://www.tripadvisor.com/Hotel_Review-g187514-d503539-Reviews-Hotel_Don_Luis-Madrid.html
503542,Hotel Quinta De Los Cedros,4,4.4,145,#269 of 498 hotels in Madrid,172,247,,"Calle Allendesalazar 4, 28043 Madrid Spain",+34 915 15 22 00,40.45959,-3.662988,HOTEL,https://www.tripadvisor.com/Hotel_Review-g187514-d503542-Reviews-Hotel_Quinta_De_Los_Cedros-Madrid.html
503543,Kris Cazadora Hotel,3,2.5,10,#458 of 498 hotels in Madrid,,,,"Avenida Hispanidad 12 Complejo Senasa - Aeropuerto de Barajas, 28042 Madrid Spain",,40.4545,-3.58574,HOTEL,https://www.tripadvisor.com/Hotel_Review-g187514-d503543-Reviews-Kris_Cazadora_Hotel-Madrid.html
505789,"Hotel Palacio Del Retiro, Autograph Collection",5,4.3,711,#136 of 498 hotels in Madrid,404,728,,"Alfonso XII 14, 28014 Madrid Spain",+34 915 23 74 60,40.41779,-3.68899,HOTEL,https://www.tripadvisor.com/Hotel_Review-g187514-d505789-Reviews-Hotel_Palacio_Del_Retiro_Autograph_Collection-Madrid.html
506966,Petit Palace Triball,3,4.5,2288,#46 of 498 hotels in Madrid,129,350,$203,"Calle Gonzalo Jimenez de Quesada 2 Esquina con C/ Gran Vía, 32, 28004 Madrid Spain",+34 699 15 61 40,40.420452,-3.702914,HOTEL,https://www.tripadvisor.com/Hotel_Review-g187514-d506966-Reviews-Petit_Palace_Triball-Madrid.html
514486,Exe Madrid Norte,4,3.6,847,#306 of 498 hotels in Madrid,89,289,$68,"Calle Martina Diaz 4 Hortaleza, 28050 Madrid Spain",+34 913 02 49 00,40.491417,-3.670276,HOTEL,https://www.tripadvisor.com/Hotel_Review-g187514-d514486-Reviews-Exe_Madrid_Norte-Madrid.html
514534,Casa Almagro,4,4.8,434,#28 of 498 hotels in Madrid,186,460,$366,"Calle Amador de los Rios 3, 28010 Madrid Spain",+34 913 10 75 00,40.42712,-3.691414,HOTEL,https://www.tripadvisor.com/Hotel_Review-g187514-d514534-Reviews-Casa_Almagro-Madrid.html
518373,Hotel Catalonia El Retiro,3,4.1,603,#135 of 498 hotels in Madrid,151,285,,"Avenida de la Ciudad de Barcelona 113, 28007 Madrid Spain",+34 914 34 11 20,40.398994,-3.670025,HOTEL,https://www.tripadvisor.com/Hotel_Review-g187514-d518373-Reviews-Hotel_Catalonia_El_Retiro-Madrid.html
526786,Itc Infantas By Soho Boutique,4,4.2,1269,#158 of 498 hotels in Madrid,137,391,,"Calle Infantas 29, 28004 Madrid Spain",+34 915 21 66 88,40.42011,-3.697054,HOTEL,https://www.tripadvisor.com/Hotel_Review-g187514-d526786-Reviews-Itc_Infantas_By_Soho_Boutique-Madrid.html
526792,Apartamentos Recoletos,3,3.7,916,#276 of 498 hotels in Madrid,112,231,$116,"Calle Villanueva 2, 28001 Madrid Spain",+34 914 31 91 00,40.422775,-3.690034,HOTEL,https://www.tripadvisor.com/Hotel_Review-g187514-d526792-Reviews-Apartamentos_Recoletos-Madrid.html
526842,Apolo,,2.6,37,#467 of 498 hotels in Madrid,,,,"Calle Juanelo 24, 28012 Madrid Spain",,40.41111,-3.7069,HOTEL,https://www.tripadvisor.com/Hotel_Review-g187514-d526842-Reviews-Apolo-Madrid.html
529988,Hostal Atocha Almudena Martin,2,3.9,377,#278 of 498 hotels in Madrid,85,443,,"Calle Atocha 43 3rd Floor, 28012 Madrid Spain",+34 914 29 95 79,40.41337,-3.700992,HOTEL,https://www.tripadvisor.com/Hotel_Review-g187514-d529988-Reviews-Hostal_Atocha_Almudena_Martin-Madrid.html
530926,Centro Colon,3,2.8,75,#482 of 498 hotels in Madrid,162,390,,"Calle Marques de La Ensenada 16, 28004 Madrid Spain",+34 913 49 00 00,40.425358,-3.691741,HOTEL,https://www.tripadvisor.com/Hotel_Review-g187514-d530926-Reviews-Centro_Colon-Madrid.html
530928,Hostal Prada,2,4.1,98,#76 of 697 Specialty lodging in Madrid,95,230,,"Calle Hortaleza 19 3 Planta, 28004 Madrid Spain",+34 915 31 60 88,40.42159,-3.70022,OTHER,https://www.tripadvisor.com/Hotel_Review-g187514-d530928-Reviews-Hostal_Prada-Madrid.html
530929,Amberes,3,2,1,#452 of 498 hotels in Madrid,,,,"Calle Gran Via 68, 28015 Madrid Spain",+34 915 47 61 00,40.42257,-3.70922,HOTEL,https://www.tripadvisor.com/Hotel_Review-g187514-d530929-Reviews-Amberes-Madrid.html
543436,Hostal La Fontana,2,3.8,360,#59 of 361 B&Bs / Inns in Madrid,69,200,,"Calle Valverde 6, 28004 Madrid Spain",+34 915 21 84 49,40.420914,-3.702071,BB,https://www.tripadvisor.com/Hotel_Review-g187514-d543436-Reviews-Hostal_La_Fontana-Madrid.html
543439,Dolce Vita,2,4,345,#57 of 697 Specialty lodging in Madrid,66,212,,"Calle San Bartolome 4 Esquina con calle de San Marcos, 28004 Madrid Spain",+34 915 22 40 18,40.421337,-3.698597,OTHER,https://www.tripadvisor.com/Hotel_Review-g187514-d543439-Reviews-Dolce_Vita-Madrid.html
543534,Icon Embassy,4,4.7,653,#42 of 498 hotels in Madrid,228,510,,"Calle de Serrano, 46 Icon Embassy Meetings & Events & Florafina Restaurant By Hotelatelier, 28001 Madrid Spain",+34 669 75 58 35,40.42695,-3.687086,HOTEL,https://www.tripadvisor.com/Hotel_Review-g187514-d543534-Reviews-Icon_Embassy-Madrid.html
550131,Hostal Bianco,1,4,123,#66 of 361 B&Bs / Inns in Madrid,107,290,,"C/ Echegaray No 5. 1st-Dcha., 28014 Madrid Spain",+34 913 69 13 32,40.41602,-3.69945,BB,https://www.tripadvisor.com/Hotel_Review-g187514-d550131-Reviews-Hostal_Bianco-Madrid.html
550224,Hostal Hispano Argentino,3,3.4,50,#398 of 498 hotels in Madrid,113,185,,"Gran Via 15 - planta 6, 28013 Madrid Spain",+34 915 32 24 48,40.419777,-3.700262,HOTEL,https://www.tripadvisor.com/Hotel_Review-g187514-d550224-Reviews-Hostal_Hispano_Argentino-Madrid.html
550994,Hotel Meninas - Boutique Hotel,4,4.2,1229,#151 of 498 hotels in Madrid,131,379,$170,"Calle Campomanes 7, 28013 Madrid Spain",+34 915 41 28 05,40.419113,-3.709318,HOTEL,https://www.tripadvisor.com/Hotel_Review-g187514-d550994-Reviews-Hotel_Meninas_Boutique_Hotel-Madrid.html
554681,Casa Chueca Hostal,2.5,3.7,88,#142 of 697 Specialty lodging in Madrid,100,275,,"Calle San Bartolome 4, 28004 Madrid Spain",0034 91 523 81 927,40.42134,-3.69868,OTHER,https://www.tripadvisor.com/Hotel_Review-g187514-d554681-Reviews-Casa_Chueca_Hostal-Madrid.html
559700,Hotel Caballero Errante,3,4.6,316,#48 of 498 hotels in Madrid,77,208,,"Calle Pinos Alta 14, 28029 Madrid Spain",+34 911 44 13 30,40.466038,-3.695972,HOTEL,https://www.tripadvisor.com/Hotel_Review-g187514-d559700-Reviews-Hotel_Caballero_Errante-Madrid.html
564384,Hostal Castilla I,2,3.7,101,#145 of 697 Specialty lodging in Madrid,86,208,,"Atocha 43, 2, 28012 Madrid Spain",+34 914 29 00 95,40.40741,-3.69445,OTHER,https://www.tripadvisor.com/Hotel_Review-g187514-d564384-Reviews-Hostal_Castilla_I-Madrid.html
564491,GoodRooms,2,3.9,340,#62 of 361 B&Bs / Inns in Madrid,93,272,,"Gran Via, 15 4b, 28013 Madrid Spain",+34 915 21 17 25,40.41959,-3.700269,BB,https://www.tripadvisor.com/Hotel_Review-g187514-d564491-Reviews-GoodRooms-Madrid.html
568724,Mucho Madrid,1,4.2,198,#67 of 697 Specialty lodging in Madrid,105,337,,"Calle Gran Via 59 7 Derecha, 28013 Madrid Spain",+34 600 72 58 30,40.42215,-3.709092,OTHER,https://www.tripadvisor.com/Hotel_Review-g187514-d568724-Reviews-Mucho_Madrid-Madrid.html
569580,OYO Hostal Felipe V,3,4,116,#342 of 498 hotels in Madrid,,,,"Calle Gran Via 15 4ºD, 28013 Madrid Spain",+34 915 22 61 43,40.41977,-3.70011,HOTEL,https://www.tripadvisor.com/Hotel_Review-g187514-d569580-Reviews-OYO_Hostal_Felipe_V-Madrid.html
571096,Clement Barajas Hotel,4,4.1,1260,#171 of 498 hotels in Madrid,110,256,$147,"Av. General, 43, 28042 Madrid Spain",+34 917 46 03 30,40.471027,-3.579907,HOTEL,https://www.tripadvisor.com/Hotel_Review-g187514-d571096-Reviews-Clement_Barajas_Hotel-Madrid.html
571346,Students Hostel Luis Velez,,4.1,49,#172 of 697 Specialty lodging in Madrid,,,,"Street Luis Velez de Guevara 2 Floor 3, Madrid Spain",+34 914 29 22 44,40.41341,-3.70236,OTHER,https://www.tripadvisor.com/Hotel_Review-g187514-d571346-Reviews-Students_Hostel_Luis_Velez-Madrid.html
571354,Hostal Miralva,2,3.5,53,#388 of 498 hotels in Madrid,94,171,,"Valverde 32, 1st fl, left, 28004 Madrid Spain",+34 913 60 45 36,40.42048,-3.70216,HOTEL,https://www.tripadvisor.com/Hotel_Review-g187514-d571354-Reviews-Hostal_Miralva-Madrid.html
571362,Cats Hostel Madrid Sol,2,4.1,1489,#25 of 697 Specialty lodging in Madrid,45,342,,"Calle Cañizares 6, 28012 Madrid Spain",+34 913 69 28 07,40.41291,-3.701671,OTHER,https://www.tripadvisor.com/Hotel_Review-g187514-d571362-Reviews-Cats_Hostel_Madrid_Sol-Madrid.html
571380,Alvaro Residencia,3,4.4,39,#124 of 697 Specialty lodging in Madrid,,,,"Conde Romanones, 8 ext, 20D, 28012 Madrid Spain",,40.41334,-3.70491,OTHER,https://www.tripadvisor.com/Hotel_Review-g187514-d571380-Reviews-Alvaro_Residencia-Madrid.html
573488,voco Madrid - Las Tablas by IHG,4,3.8,369,#261 of 498 hotels in Madrid,94,298,$115,"Calle Maria Tubau 16, 28050 Madrid Spain",+34 913 58 64 00,40.512444,-3.67615,HOTEL,https://www.tripadvisor.com/Hotel_Review-g187514-d573488-Reviews-Voco_Madrid_Las_Tablas_by_IHG-Madrid.html
574787,Hotel Catalonia Goya,4,4.1,1164,#170 of 498 hotels in Madrid,186,421,$228,"Calle Goya 49, 28001 Madrid Spain",+34 917 81 49 49,40.42526,-3.682202,HOTEL,https://www.tripadvisor.com/Hotel_Review-g187514-d574787-Reviews-Hotel_Catalonia_Goya-Madrid.html
579178,TH Aravaca,3,3.1,115,#427 of 498 hotels in Madrid,87,188,,"Calle Alsasua 5, 28023 Madrid Spain",+34 913 57 16 00,40.46366,-3.799226,HOTEL,https://www.tripadvisor.com/Hotel_Review-g187514-d579178-Reviews-TH_Aravaca-Madrid.html
582392,Hotel Victoria 4 Puerta del Sol,3,3.9,1066,#204 of 498 hotels in Madrid,156,404,$181,"Calle de Victoria 4, 28012 Madrid Spain",+34 915 23 84 30,40.416397,-3.701755,HOTEL,https://www.tripadvisor.com/Hotel_Review-g187514-d582392-Reviews-Hotel_Victoria_4_Puerta_del_Sol-Madrid.html
585148,TÓTEM Madrid,4,4.5,391,#84 of 498 hotels in Madrid,343,611,$385,"CALLE DE HERMOSILLA, 23, 28001 Madrid Spain",+34 914 26 00 35,40.42655,-3.685471,HOTEL,https://www.tripadvisor.com/Hotel_Review-g187514-d585148-Reviews-TOTEM_Madrid-Madrid.html
586429,Hostal Los Alpes,1,4.1,373,#45 of 697 Specialty lodging in Madrid,71,144,,"C/ Fuencarral, 17 4º Planta, 28004 Madrid Spain",+34 689 59 59 72,40.421135,-3.701255,OTHER,https://www.tripadvisor.com/Hotel_Review-g187514-d586429-Reviews-Hostal_Los_Alpes-Madrid.html
587150,Vincci Soho,4,4.3,3151,#40 of 498 hotels in Madrid,169,522,$245,"Calle del Prado, 18, 28014 Madrid Spain",+34 911 41 41 00,40.414790000000004,-3.69843,HOTEL,https://www.tripadvisor.com/Hotel_Review-g187514-d587150-Reviews-Vincci_Soho-Madrid.html
589532,VP SOGNIO Metropolitano,4,4.3,796,#145 of 498 hotels in Madrid,137,374,$190,"Avenida Reina Victoria, 12, 28003 Madrid Spain",+34 911 83 18 10,40.447067,-3.705539,HOTEL,https://www.tripadvisor.com/Hotel_Review-g187514-d589532-Reviews-VP_SOGNIO_Metropolitano-Madrid.html
589557,Petit Palace Alcala,4,4.2,1458,#75 of 498 hotels in Madrid,176,368,,"Calle de la Virgen de los Peligros, 2 Esquina Alcala 23, 28013 Madrid Spain",+34 689 06 37 90,40.418327,-3.699315,HOTEL,https://www.tripadvisor.com/Hotel_Review-g187514-d589557-Reviews-Petit_Palace_Alcala-Madrid.html
593190,Hotel Puerta América Madrid,5,4.1,3361,#238 of 498 hotels in Madrid,147,286,,"Avenida de América 41, 28002 Madrid Spain",+34 917 44 54 10,40.440685,-3.67011,HOTEL,https://www.tripadvisor.com/Hotel_Review-g187514-d593190-Reviews-Hotel_Puerta_America_Madrid-Madrid.html
593241,Hotel Abalu,3,3.4,517,#380 of 498 hotels in Madrid,107,389,,"Calle del Pez 19, 28004 Madrid Spain",+34 915 31 47 44,40.42395,-3.705847,HOTEL,https://www.tripadvisor.com/Hotel_Review-g187514-d593241-Reviews-Hotel_Abalu-Madrid.html
594226,Hostal Oriente,3,4.3,574,#129 of 498 hotels in Madrid,122,253,,"Calle Arenal 23, 28013 Madrid Spain",+34 915 48 03 14,40.417755,-3.708991,HOTEL,https://www.tripadvisor.com/Hotel_Review-g187514-d594226-Reviews-Hostal_Oriente-Madrid.html
594939,Hotel Madrisol,2,3.2,477,#395 of 498 hotels in Madrid,117,328,,"Calle Nunez de Arce 1 Junto a la Puerta del Sol, 28012 Madrid Spain",+34 915 21 20 19,40.415913,-3.701137,HOTEL,https://www.tripadvisor.com/Hotel_Review-g187514-d594939-Reviews-Hotel_Madrisol-Madrid.html
595745,Hostal El Pilar,2,3.7,276,#99 of 361 B&Bs / Inns in Madrid,73,221,,"Calle Carretas 13 Next Puerta del Sol, 28012 Madrid Spain",+34 915 31 26 26,40.41601,-3.703202,BB,https://www.tripadvisor.com/Hotel_Review-g187514-d595745-Reviews-Hostal_El_Pilar-Madrid.html
596670,Occidental Madrid Este,4,4.4,1190,#124 of 498 hotels in Madrid,,,,"Calle Julian Camarillo 19-21, 28037 Madrid Spain",+34 913 87 94 00,40.434242,-3.630311,HOTEL,https://www.tripadvisor.com/Hotel_Review-g187514-d596670-Reviews-Occidental_Madrid_Este-Madrid.html
597233,Aparthotel Rosales,3,4,121,#319 of 498 hotels in Madrid,146,315,,"Calle Marques de Urquijo 23 Moncloa-Aravaca, 28008 Madrid Spain",+34 915 42 03 51,40.429684,-3.718752,HOTEL,https://www.tripadvisor.com/Hotel_Review-g187514-d597233-Reviews-Aparthotel_Rosales-Madrid.html
597370,AC Hotel by Marriott Aravaca,4,3.2,204,#393 of 498 hotels in Madrid,,,,"Camino De La Zarzuela, 28023 Madrid Spain",+34 917 40 06 80,40.464382,-3.785132,HOTEL,https://www.tripadvisor.com/Hotel_Review-g187514-d597370-Reviews-AC_Hotel_by_Marriott_Aravaca-Madrid.html
599363,Catalonia Las Cortes,4,4.7,2256,#31 of 498 hotels in Madrid,190,448,$392,"Calle del Prado 6, 28014 Madrid Spain",+34 913 89 60 51,40.414722,-3.69944,HOTEL,https://www.tripadvisor.com/Hotel_Review-g187514-d599363-Reviews-Catalonia_Las_Cortes-Madrid.html
599697,Hotel Miau,3,4,262,#241 of 498 hotels in Madrid,192,422,,"Calle Principe 26 Corner Pza. Santa Ana, 28012 Madrid Spain",+34 913 69 71 20,40.414555,-3.700426,HOTEL,https://www.tripadvisor.com/Hotel_Review-g187514-d599697-Reviews-Hotel_Miau-Madrid.html
600331,Petit Palace Tres Cruces,3,4.3,1716,#38 of 498 hotels in Madrid,130,316,$199,"Calle Tres Cruces 6, 28013 Madrid Spain",+34 608 31 91 66,40.419334,-3.702782,HOTEL,https://www.tripadvisor.com/Hotel_Review-g187514-d600331-Reviews-Petit_Palace_Tres_Cruces-Madrid.html
601728,Petit Palace Plaza del Carmen,4,4.3,1254,#63 of 498 hotels in Madrid,143,327,$213,"Plaza del Carmen 4, 28013 Madrid Spain",+34 676 05 67 27,40.41892,-3.702879,HOTEL,https://www.tripadvisor.com/Hotel_Review-g187514-d601728-Reviews-Petit_Palace_Plaza_del_Carmen-Madrid.html
605820,Don Pio,4,4.3,235,#242 of 498 hotels in Madrid,177,298,,"Avenida Pio XII 25, 28016 Madrid Spain",+34 913 53 07 80,40.46282,-3.676327,HOTEL,https://www.tripadvisor.com/Hotel_Review-g187514-d605820-Reviews-Don_Pio-Madrid.html
605821,Hostal Gran Vía 63 Rooms,3,3.7,178,#111 of 361 B&Bs / Inns in Madrid,95,295,,"Gran Via, 63 5th Floor, 28013 Madrid Spain",+34 917 58 11 32,40.422554,-3.709722,BB,https://www.tripadvisor.com/Hotel_Review-g187514-d605821-Reviews-Hostal_Gran_Via_63_Rooms-Madrid.html
607162,Hotel Room Mate Alicia,3,4.5,1600,#87 of 498 hotels in Madrid,144,444,$288,"Calle Prado 2, 28014 Madrid Spain",+34 913 89 60 95,40.414482,-3.700112,HOTEL,https://www.tripadvisor.com/Hotel_Review-g187514-d607162-Reviews-Hotel_Room_Mate_Alicia-Madrid.html
607405,Petit Palace Plaza Espana,4,4.1,1298,#119 of 498 hotels in Madrid,174,466,,"Calle San Bernardo 3, 28013 Madrid Spain",+34 696 52 05 52,40.420887,-3.708359,HOTEL,https://www.tripadvisor.com/Hotel_Review-g187514-d607405-Reviews-Petit_Palace_Plaza_Espana-Madrid.html
609367,Hostal A. Nebrija,,3.8,4,#433 of 498 hotels in Madrid,,,,"Gran Via 67, 8th Floor, 28013 Madrid Spain",+34 915 47 73 19,40.4201,-3.7028,HOTEL,https://www.tripadvisor.com/Hotel_Review-g187514-d609367-Reviews-Hostal_A_Nebrija-Madrid.html
609391,Hostal Dominguez,1,3.8,66,#367 of 498 hotels in Madrid,100,164,,"Calle Santa Brigida 1, 28004 Madrid Spain",+34 915 32 15 47,40.42443,-3.70044,HOTEL,https://www.tripadvisor.com/Hotel_Review-g187514-d609391-Reviews-Hostal_Dominguez-Madrid.html
609396,Hostal Helena,2,2.7,126,#577 of 697 Specialty lodging in Madrid,,,,"Calle Gran Via 44 9th Floor, 28013 Madrid Spain",+34 915 21 75 85,40.4205,-3.7055,OTHER,https://www.tripadvisor.com/Hotel_Review-g187514-d609396-Reviews-Hostal_Helena-Madrid.html
609397,Hostal Valencia,3,3.6,204,#341 of 498 hotels in Madrid,5487,5506,,"Calle Gran Via 44, 28013 Madrid Spain",+34 915 22 11 15,40.420395,-3.705575,HOTEL,https://www.tripadvisor.com/Hotel_Review-g187514-d609397-Reviews-Hostal_Valencia-Madrid.html
609561,Radisson Red Madrid,4,4.2,449,#165 of 498 hotels in Madrid,186,368,$243,"Calle Atocha 123, 28012 Madrid Spain",+34 912 98 48 00,40.410038,-3.693744,HOTEL,https://www.tripadvisor.com/Hotel_Review-g187514-d609561-Reviews-Radisson_Red_Madrid-Madrid.html
612251,Hotel Luze Castellana,3,3.8,724,#223 of 498 hotels in Madrid,139,276,$172,"C. de Julián Besteiro, 37, 28020 Madrid Spain",+34 915 79 97 38,40.458675,-3.695282,HOTEL,https://www.tripadvisor.com/Hotel_Review-g187514-d612251-Reviews-Hotel_Luze_Castellana-Madrid.html
612753,Hostal Luis XV,3,3.8,335,#73 of 697 Specialty lodging in Madrid,,,,"Calle Montera 47 8º Floor, 28013 Madrid Spain",+34 915 22 13 50,40.419888,-3.701818,OTHER,https://www.tripadvisor.com/Hotel_Review-g187514-d612753-Reviews-Hostal_Luis_XV-Madrid.html
613013,Casa de Madrid,,4.4,162,#72 of 361 B&Bs / Inns in Madrid,319,406,,"Calle Arrieta 2 2a Planta 5 Puerta 2a, 28013 Madrid Spain",+34 660 34 24 27,40.41859,-3.70982,BB,https://www.tripadvisor.com/Hotel_Review-g187514-d613013-Reviews-Casa_de_Madrid-Madrid.html
613461,Hostal Bruna,2,3.9,180,#90 of 697 Specialty lodging in Madrid,98,202,,"Calle Moratin 50, 28014 Madrid Spain",+34 914 29 47 01,40.412693,-3.694408,OTHER,https://www.tripadvisor.com/Hotel_Review-g187514-d613461-Reviews-Hostal_Bruna-Madrid.html
615119,Hostal Alaska,1,3.8,167,#126 of 361 B&Bs / Inns in Madrid,82,308,,"Calle Espoz y Mina, 7 Left, Downtown, 28012 Madrid Spain",+34 915 24 92 08,40.415657,-3.701061,BB,https://www.tripadvisor.com/Hotel_Review-g187514-d615119-Reviews-Hostal_Alaska-Madrid.html
620038,Room Mate Mario,2,4.4,2254,#108 of 498 hotels in Madrid,143,404,,"Calle Campomanes 4, 28013 Madrid Spain",+34 915 48 85 48,40.418842,-3.70933,HOTEL,https://www.tripadvisor.com/Hotel_Review-g187514-d620038-Reviews-Room_Mate_Mario-Madrid.html
620357,Ibis Madrid Aeropuerto Barajas,2,4,3485,#213 of 498 hotels in Madrid,98,259,,"49 Avenida General, 28042 Madrid Spain",+34 913 01 09 99,40.469894,-3.580735,HOTEL,https://www.tripadvisor.com/Hotel_Review-g187514-d620357-Reviews-Ibis_Madrid_Aeropuerto_Barajas-Madrid.html
620827,Hostal La Vera,1,3.6,97,#123 of 697 Specialty lodging in Madrid,87,232,,"Calle Magdalena 21, 28012 Madrid Spain",+34 913 69 17 38,40.41239,-3.70104,OTHER,https://www.tripadvisor.com/Hotel_Review-g187514-d620827-Reviews-Hostal_La_Vera-Madrid.html
620971,Apartamentos Caballero de Gracia,3,4.7,154,#200 of 498 hotels in Madrid,,,,"Calle Caballero de Gracia 16, 28013 Madrid Spain",+34 650 65 05 01,40.419426,-3.700314,HOTEL,https://www.tripadvisor.com/Hotel_Review-g187514-d620971-Reviews-Apartamentos_Caballero_de_Gracia-Madrid.html
624796,Hostal Carrera,2,3.7,68,#142 of 361 B&Bs / Inns in Madrid,79,360,,"Carretera de San Jerónimo 30 3rd Floor, 28014 Madrid Spain",+34 914 29 68 08,40.41649,-3.69927,BB,https://www.tripadvisor.com/Hotel_Review-g187514-d624796-Reviews-Hostal_Carrera-Madrid.html
626096,Cats Hostels,2,3.9,736,#42 of 697 Specialty lodging in Madrid,,,,"Calle Cabeza 24, 28012 Madrid Spain",+34 915 06 48 40,40.411892,-3.702027,OTHER,https://www.tripadvisor.com/Hotel_Review-g187514-d626096-Reviews-Cats_Hostels-Madrid.html
626115,Albergue Miguel Ángel,1,5,1,#412 of 498 hotels in Madrid,124,547,,"Plaza Celenque no 1 Escalera 1 Planta 0 4 Izq. Plaza de Celenque No 1, 4 Izq, 28013 Madrid Spain",+34 600 57 79 90,40.41735,-3.70605,HOTEL,https://www.tripadvisor.com/Hotel_Review-g187514-d626115-Reviews-Albergue_Miguel_Angel-Madrid.html
626432,Hostal Tudescos,1,3.1,27,#313 of 697 Specialty lodging in Madrid,69,198,,"Corredera Baja de San Pablo 1, 2º Dcha, 28004 Madrid Spain",+34 915 31 52 66,40.422110000000004,-3.70418,OTHER,https://www.tripadvisor.com/Hotel_Review-g187514-d626432-Reviews-Hostal_Tudescos-Madrid.html
629331,Sudamericana Hostal,,1.7,104,#692 of 697 Specialty lodging in Madrid,,,,"Paseo Prado 12, 28014 Madrid Spain",+34 914 29 25 64,40.41435,-3.69428,OTHER,https://www.tripadvisor.com/Hotel_Review-g187514-d629331-Reviews-Sudamericana_Hostal-Madrid.html
629618,Hotel Hospes Puerta de Alcala,5,4.5,1088,#106 of 498 hotels in Madrid,360,670,$444,"Pl. De La Independencia, 3, 28001 Madrid Spain",+34 914 36 34 78,40.42062,-3.689282,HOTEL,https://www.tripadvisor.com/Hotel_Review-g187514-d629618-Reviews-Hotel_Hospes_Puerta_de_Alcala-Madrid.html
630822,Hostal Esparteros,1,4.1,120,#79 of 361 B&Bs / Inns in Madrid,109,326,,"4 Floor Calle Esparteros 12, 28012 Madrid Spain",+34 915 21 09 03,40.41562,-3.70535,BB,https://www.tripadvisor.com/Hotel_Review-g187514-d630822-Reviews-Hostal_Esparteros-Madrid.html
631004,Suites Viena Plaza De España,3,4.6,2618,#21 of 498 hotels in Madrid,153,275,$171,"Calle Juan Alvarez Mendizabal 17 Junto a Plaza de España, 28008 Madrid Spain",+34 917 58 36 05,40.42487,-3.715009,HOTEL,https://www.tripadvisor.com/Hotel_Review-g187514-d631004-Reviews-Suites_Viena_Plaza_De_Espana-Madrid.html
631306,Hostal Matheu,2,3.3,227,#153 of 361 B&Bs / Inns in Madrid,83,337,,"Calle Victoria 6 Puerta del Sol, 28012 Madrid Spain",+34 915 21 49 43,40.416084,-3.701767,BB,https://www.tripadvisor.com/Hotel_Review-g187514-d631306-Reviews-Hostal_Matheu-Madrid.html
631811,B&B HOTEL Madrid Aeropuerto T1-T2-T3,3,3.5,237,#346 of 498 hotels in Madrid,70,152,$78,"Calle Lola Flores 2, 28022 Madrid Spain",+34 917 48 16 57,40.44737,-3.543019,HOTEL,https://www.tripadvisor.com/Hotel_Review-g187514-d631811-Reviews-B_B_HOTEL_Madrid_Aeropuerto_T1_T2_T3-Madrid.html
632840,limehome Madrid Calle de Don Ramón de la Cruz,2,4.5,140,#295 of 498 hotels in Madrid,107,527,,"Calle de Don Ramón de la Cruz 41, 28001 Madrid Spain",+34 911 23 33 37,40.42895,-3.680405,HOTEL,https://www.tripadvisor.com/Hotel_Review-g187514-d632840-Reviews-Limehome_Madrid_Calle_de_Don_Ramon_de_la_Cruz-Madrid.html
634098,CH Las Murallas,1,3.6,144,#189 of 697 Specialty lodging in Madrid,69,167,,"Calle Fuencarral 23 4 Derecha, 28004 Madrid Spain",+34 910 58 56 23,40.421646,-3.701328,OTHER,https://www.tripadvisor.com/Hotel_Review-g187514-d634098-Reviews-CH_Las_Murallas-Madrid.html
634402,Hostal Lido,1,4.1,97,#70 of 697 Specialty lodging in Madrid,86,178,,"Echegaray no 5, 20 izquierda, 28014 Madrid Spain",+34 914 29 62 07,40.41389,-3.699333,OTHER,https://www.tripadvisor.com/Hotel_Review-g187514-d634402-Reviews-Hostal_Lido-Madrid.html
634752,Hostal Lamalonga,,3.4,41,#147 of 361 B&Bs / Inns in Madrid,151,346,,"Calle Gran Via 56, 28013 Madrid Spain",+34 915 47 68 94,40.42142,-3.70742,BB,https://www.tripadvisor.com/Hotel_Review-g187514-d634752-Reviews-Hostal_Lamalonga-Madrid.html
638683,Hotel 4C Bravo Murillo,2,3.8,331,#287 of 498 hotels in Madrid,89,224,$116,"Calle Bravo Murillo 180, 28020 Madrid Spain",+34 915 67 08 82,40.4541,-3.702634,HOTEL,https://www.tripadvisor.com/Hotel_Review-g187514-d638683-Reviews-Hotel_4C_Bravo_Murillo-Madrid.html
638825,Hostal Camino,2,2,45,#641 of 697 Specialty lodging in Madrid,,,,"Calle Hortaleza 78 3ºpiso, 28004 Madrid Spain",+34 913 08 13 34,40.42349,-3.69866,OTHER,https://www.tripadvisor.com/Hotel_Review-g187514-d638825-Reviews-Hostal_Camino-Madrid.html
644639,Hotel Exe Suites 33,3,4.1,712,#194 of 498 hotels in Madrid,124,352,,"Calle Leganitos 33, 28013 Madrid Spain",+34 917 58 38 50,40.422096,-3.710659,HOTEL,https://www.tripadvisor.com/Hotel_Review-g187514-d644639-Reviews-Hotel_Exe_Suites_33-Madrid.html
647458,Ac Hotel Madrid Feria,4,4,469,#243 of 498 hotels in Madrid,145,366,,"Via De Los Poblados, 3, 28033 Madrid Spain",+34 913 82 47 81,40.47481,-3.6344,HOTEL,https://www.tripadvisor.com/Hotel_Review-g187514-d647458-Reviews-Ac_Hotel_Madrid_Feria-Madrid.html
647998,Apartamentos El Tiempo,3,3.6,148,#136 of 697 Specialty lodging in Madrid,108,297,,"Calle de Barcelona 4-6, 28012 Madrid Spain",+34 915 23 08 18,40.415638,-3.702602,OTHER,https://www.tripadvisor.com/Hotel_Review-g187514-d647998-Reviews-Apartamentos_El_Tiempo-Madrid.html
649202,Luz Madrid Rooms,2,4.2,640,#26 of 361 B&Bs / Inns in Madrid,101,187,,"Calle Fuentes 10 City center: Plaza de la Opera, 28013 Madrid Spain",+34 915 42 07 59,40.417423,-3.708593,BB,https://www.tripadvisor.com/Hotel_Review-g187514-d649202-Reviews-Luz_Madrid_Rooms-Madrid.html
649828,Hilton Madrid Airport,4,4.2,4169,#179 of 498 hotels in Madrid,161,462,,"Avenida Hispanidad 2-4, 28042 Madrid Spain",+34 911 53 40 00,40.452126,-3.585733,HOTEL,https://www.tripadvisor.com/Hotel_Review-g187514-d649828-Reviews-Hilton_Madrid_Airport-Madrid.html
649831,AC Hotel Recoletos,4,4.2,650,#152 of 498 hotels in Madrid,332,524,,"Calle Recoletos, 18, 28001 Madrid Spain",+34 914 36 13 82,40.42282,-3.69104,HOTEL,https://www.tripadvisor.com/Hotel_Review-g187514-d649831-Reviews-AC_Hotel_Recoletos-Madrid.html
653686,Ibis Madrid Calle Alcalá,1,4.1,1352,#203 of 498 hotels in Madrid,82,201,$103,"Valentin Beato 20, 28037 Madrid Spain",+34 913-75-90-43,40.439354,-3.626311,HOTEL,https://www.tripadvisor.com/Hotel_Review-g187514-d653686-Reviews-Ibis_Madrid_Calle_Alcala-Madrid.html
654014,Hostal la Zona,1,4.2,247,#24 of 361 B&Bs / Inns in Madrid,135,220,,"Calle Valverde 7 1 And 2, 28004 Madrid Spain",+34 915 21 99 04,40.421024,-3.70214,BB,https://www.tripadvisor.com/Hotel_Review-g187514-d654014-Reviews-Hostal_la_Zona-Madrid.html
654177,CH La Banezana,2,4,65,#146 of 697 Specialty lodging in Madrid,82,266,,"Calle de la Cruz 26, 1 Izquierda, 28012 Madrid Spain",+34 915 21 75 95,40.41489,-3.70273,OTHER,https://www.tripadvisor.com/Hotel_Review-g187514-d654177-Reviews-CH_La_Banezana-Madrid.html
657188,Hostel Santa Ana Colors,2.5,3.9,245,#55 of 361 B&Bs / Inns in Madrid,81,208,,"Calle Huertas 14 2 Ext. Izda, 28012 Madrid Spain",+34 914 29 12 79,40.41387,-3.700523,BB,https://www.tripadvisor.com/Hotel_Review-g187514-d657188-Reviews-Hostel_Santa_Ana_Colors-Madrid.html
658636,Hostal Triana,3,4.3,213,#52 of 697 Specialty lodging in Madrid,87,131,,"Calle Salud 13, 28013 Madrid Spain",+34 915 32 68 12,40.419376,-3.703472,OTHER,https://www.tripadvisor.com/Hotel_Review-g187514-d658636-Reviews-Hostal_Triana-Madrid.html
661404,Hostal María Ronda,3,4.1,54,#107 of 697 Specialty lodging in Madrid,89,164,,"Calle de la Batalla de Torrijos 26, 28025 Madrid Spain",+34 914 66 00 20,40.384747,-3.741064,OTHER,https://www.tripadvisor.com/Hotel_Review-g187514-d661404-Reviews-Hostal_Maria_Ronda-Madrid.html
662557,Hostal Santo Domingo,3,4.4,491,#31 of 697 Specialty lodging in Madrid,100,236,,"Calle de la Luna 6 Callao, 28004 Madrid Spain",+34 915 31 32 90,40.421677,-3.705133,OTHER,https://www.tripadvisor.com/Hotel_Review-g187514-d662557-Reviews-Hostal_Santo_Domingo-Madrid.html
662558,Hotel Vincci Via 66,4,4.2,2293,#121 of 498 hotels in Madrid,154,510,$230,"Calle Gran Via 66, 28013 Madrid Spain",+34 915 50 42 99,40.42241,-3.708878,HOTEL,https://www.tripadvisor.com/Hotel_Review-g187514-d662558-Reviews-Hotel_Vincci_Via_66-Madrid.html
666069,Hostal Comercial,1,4.2,255,#290 of 498 hotels in Madrid,95,351,,"c/ Esparteros 12 - 2o, 28012 Madrid Spain",+34 915 22 66 30,40.415676,-3.705379,HOTEL,https://www.tripadvisor.com/Hotel_Review-g187514-d666069-Reviews-Hostal_Comercial-Madrid.html
666609,Hostal Esmeralda,2,4.1,192,#64 of 697 Specialty lodging in Madrid,86,193,,"Calle de Victoria 1 2nd Floor, 28012 Madrid Spain",+34 915 21 00 77,40.416595,-3.701575,OTHER,https://www.tripadvisor.com/Hotel_Review-g187514-d666609-Reviews-Hostal_Esmeralda-Madrid.html
668302,Hostal Lauria,2,4.4,188,#191 of 498 hotels in Madrid,100,305,,"Calle Gran Via 50, 28013 Madrid Spain",+34 915 41 91 82,40.420803,-3.706668,HOTEL,https://www.tripadvisor.com/Hotel_Review-g187514-d668302-Reviews-Hostal_Lauria-Madrid.html
670449,Eco Alcala Suites,4,3.7,396,#324 of 498 hotels in Madrid,110,255,,"Calle Santa Leonor 24, 28037 Madrid Spain",+34 914 40 10 54,40.43753,-3.63163,HOTEL,https://www.tripadvisor.com/Hotel_Review-g187514-d670449-Reviews-Eco_Alcala_Suites-Madrid.html
673345,Hostal EL Catal,2,3.9,53,#386 of 498 hotels in Madrid,99,178,,"Hortaleza 17 20 Izquierda, 28004 Madrid Spain",+34 915 32 30 17,40.421474,-3.70035,HOTEL,https://www.tripadvisor.com/Hotel_Review-g187514-d673345-Reviews-Hostal_EL_Catal-Madrid.html
674679,Colors Hostal Madrid,,2.9,34,#460 of 498 hotels in Madrid,,,,"Calle Fuencarral 14, 28004 Madrid Spain",+34 915 21 46 46,40.42127,-3.70109,HOTEL,https://www.tripadvisor.com/Hotel_Review-g187514-d674679-Reviews-Colors_Hostal_Madrid-Madrid.html
675157,Room Mate Oscar,3,4.4,3496,#53 of 498 hotels in Madrid,173,440,$233,"Plaza de Pedro Zerolo 12, 28004 Madrid Spain",+34 911 16 11 99,40.420635,-3.699006,HOTEL,https://www.tripadvisor.com/Hotel_Review-g187514-d675157-Reviews-Room_Mate_Oscar-Madrid.html
677860,Hotel Durval Puerta de Alcala,4,4,2,#434 of 498 hotels in Madrid,,,,"Calle Salustiano Olozaga 12, 28001 Madrid Spain",+34 915 75 20 00,40.42052,-3.69036,HOTEL,https://www.tripadvisor.com/Hotel_Review-g187514-d677860-Reviews-Hotel_Durval_Puerta_de_Alcala-Madrid.html
677925,Hostal Maria Luisa,2,3.8,177,#99 of 697 Specialty lodging in Madrid,95,300,,"Calle Hortaleza, 19, 28004 Madrid Spain",+34 915 21 16 30,40.421585,-3.700271,OTHER,https://www.tripadvisor.com/Hotel_Review-g187514-d677925-Reviews-Hostal_Maria_Luisa-Madrid.html
734930,Hostal America,2,3.6,174,#364 of 498 hotels in Madrid,81,260,,"Calle Hortaleza 19 50 Piso, 28004 Madrid Spain",+34 915 22 64 48,40.42158,-3.700296,HOTEL,https://www.tripadvisor.com/Hotel_Review-g187514-d734930-Reviews-Hostal_America-Madrid.html
737257,Hotel 4C Puerta Europa,1,3.7,116,#352 of 498 hotels in Madrid,89,213,,"Calle Bravo Murillo 364, 28020 Madrid Spain",+34 915 79 60 77,40.465145,-3.693025,HOTEL,https://www.tripadvisor.com/Hotel_Review-g187514-d737257-Reviews-Hotel_4C_Puerta_Europa-Madrid.html
754596,Hotel Suites Feria,4,3,174,#383 of 498 hotels in Madrid,83,317,$117,"C. del Moscatelar, 31, 28043 Madrid Spain",+34 656 18 70 03,40.457355,-3.646756,HOTEL,https://www.tripadvisor.com/Hotel_Review-g187514-d754596-Reviews-Hotel_Suites_Feria-Madrid.html
788560,B&B Punto Azul,,0,0,,,,,"Camino Manzanares 49 Hoyo de Manzanares, 28240 Madrid Spain",,40.62863,-3.90039,BB,https://www.tripadvisor.com/Hotel_Review-g187514-d788560-Reviews-B_B_Punto_Azul-Madrid.html
811618,Flat5Madrid,3,4.2,387,#28 of 361 B&Bs / Inns in Madrid,63,217,,"Calle San Bernardo 55 5th Left, 28015 Madrid Spain",+34 911 27 24 00,40.425774,-3.707331,BB,https://www.tripadvisor.com/Hotel_Review-g187514-d811618-Reviews-Flat5Madrid-Madrid.html
939097,Hostal Ana Belen,2,4.2,103,#61 of 361 B&Bs / Inns in Madrid,145,149,,"Calle Espoz y Mina 2 y Planta 4 Puerta 1 Puerta del Sol, 28012 Madrid Spain",+34 915 32 94 44,40.416805,-3.702753,BB,https://www.tripadvisor.com/Hotel_Review-g187514-d939097-Reviews-Hostal_Ana_Belen-Madrid.html
943395,Hostal Jerez,3,3.9,323,#50 of 361 B&Bs / Inns in Madrid,,,,"Calle Montera 47-6, 28013 Madrid Spain",+34 915 32 75 65,40.420116,-3.701846,BB,https://www.tripadvisor.com/Hotel_Review-g187514-d943395-Reviews-Hostal_Jerez-Madrid.html
943397,Blume Apartamentos,3,3.9,25,#244 of 697 Specialty lodging in Madrid,156,172,,"Calle Conde de Aranda 3, 28001 Madrid Spain",+34 657 93 98 99,40.421852,-3.687749,OTHER,https://www.tripadvisor.com/Hotel_Review-g187514-d943397-Reviews-Blume_Apartamentos-Madrid.html
949909,Hostal El Pasaje,3,3.7,258,#343 of 498 hotels in Madrid,100,376,,"Calle Pozo 4 Puerta del Sol, 28012 Madrid Spain",+34 915 21 29 95,40.416256,-3.701411,HOTEL,https://www.tripadvisor.com/Hotel_Review-g187514-d949909-Reviews-Hostal_El_Pasaje-Madrid.html
952651,Hostal Avenida,2,4,89,#78 of 361 B&Bs / Inns in Madrid,93,281,,"Calle Gran Via 15 Planta 4 Puerta A, 28013 Madrid Spain",+34 915 22 63 60,40.41952,-3.699155,BB,https://www.tripadvisor.com/Hotel_Review-g187514-d952651-Reviews-Hostal_Avenida-Madrid.html
952653,Eden Paraiso Neptuno,,3.9,107,#370 of 498 hotels in Madrid,109,114,,"Calle Montera 6, 28013 Madrid Spain",,40.41748,-3.7028,HOTEL,https://www.tripadvisor.com/Hotel_Review-g187514-d952653-Reviews-Eden_Paraiso_Neptuno-Madrid.html
953502,Hostal Victoria III,2,3.5,90,#204 of 697 Specialty lodging in Madrid,80,156,,"C/ Carrera San Jeronimo, 30 - 4th, 28014 Madrid Spain",+34 914 20 23 57,40.41662,-3.70207,OTHER,https://www.tripadvisor.com/Hotel_Review-g187514-d953502-Reviews-Hostal_Victoria_III-Madrid.html
966889,Hostal Goyal Pizarro,3,4,310,#96 of 697 Specialty lodging in Madrid,101,221,,"Calle Pizarro 14-1, 28004 Madrid Spain",+34 915 31 91 58,40.423042,-3.705821,OTHER,https://www.tripadvisor.com/Hotel_Review-g187514-d966889-Reviews-Hostal_Goyal_Pizarro-Madrid.html
982857,ibis budget Madrid Calle Alcala,4,3.8,1126,#257 of 498 hotels in Madrid,70,161,$88,"Calle Rufino Gonzalez 19 Metro Suanzs, 28037 Madrid Spain",+34 913 04 04 41,40.43936,-3.62687,HOTEL,https://www.tripadvisor.com/Hotel_Review-g187514-d982857-Reviews-Ibis_budget_Madrid_Calle_Alcala-Madrid.html
1008133,Occidental Castellana Norte,4,4.5,1999,#72 of 498 hotels in Madrid,95,228,$96,"Avenida Manoteras 20 Edificio E, 28050 Madrid Spain",+34 913 83 09 50,40.4881,-3.66839,HOTEL,https://www.tripadvisor.com/Hotel_Review-g187514-d1008133-Reviews-Occidental_Castellana_Norte-Madrid.html
1009147,Hostal Splendid,2,4,56,#349 of 498 hotels in Madrid,86,187,,"C.Gran Vía, 15, 28013 Madrid Spain",+34 915 22 47 37,40.419765,-3.700254,HOTEL,https://www.tripadvisor.com/Hotel_Review-g187514-d1009147-Reviews-Hostal_Splendid-Madrid.html
1010650,Hostal Union,2,3.7,42,#141 of 361 B&Bs / Inns in Madrid,,,,"Calle Infantas, 26 - 40 28004, 28004 Madrid Spain",+34 915 21 46 00,40.42048,-3.69909,BB,https://www.tripadvisor.com/Hotel_Review-g187514-d1010650-Reviews-Hostal_Union-Madrid.html
1018369,Hostal Rubio,,2.8,20,#449 of 498 hotels in Madrid,,,,"Calle Conde de Romanones 8, 28012 Madrid Spain",+34 913 69 30 42,40.41334,-3.70491,HOTEL,https://www.tripadvisor.com/Hotel_Review-g187514-d1018369-Reviews-Hostal_Rubio-Madrid.html
1022218,Hostal Olga,2,3.8,105,#91 of 361 B&Bs / Inns in Madrid,,,,"Calle Zorrilla 13, 28014 Madrid Spain",+34 914 29 78 87,40.416782,-3.696921,BB,https://www.tripadvisor.com/Hotel_Review-g187514-d1022218-Reviews-Hostal_Olga-Madrid.html
1023226,Hostal Biarritz,2,4.1,108,#70 of 361 B&Bs / Inns in Madrid,104,204,,"Calle de Victoria n.2- 2 piso Planta 2, 28014 Madrid Spain",+34 628 05 00 10,40.416664,-3.701721,BB,https://www.tripadvisor.com/Hotel_Review-g187514-d1023226-Reviews-Hostal_Biarritz-Madrid.html
1028276,Apartamentos Blume Cruz,3,4.7,593,#6 of 697 Specialty lodging in Madrid,156,476,,"Calle de la Cruz 35, 28012 Madrid Spain",+34 914 35 25 33,40.414837,-3.702627,OTHER,https://www.tripadvisor.com/Hotel_Review-g187514-d1028276-Reviews-Apartamentos_Blume_Cruz-Madrid.html
1036505,Hostal Castilla III,,3.3,20,#336 of 697 Specialty lodging in Madrid,,,,"Calle del Marques Viudo de Pontejos N 7 4ta Planta, 28012 Madrid Spain",+34 915 32 57 38,40.4157,-3.705011,OTHER,https://www.tripadvisor.com/Hotel_Review-g187514-d1036505-Reviews-Hostal_Castilla_III-Madrid.html
1052697,Eurostars Madrid Tower,5,4.1,2905,#239 of 498 hotels in Madrid,198,362,$172,"Paseo Castellana 259 B Cuatro Torres Business Area, 28046 Madrid Spain",+34 913 34 27 00,40.47793,-3.687744,HOTEL,https://www.tripadvisor.com/Hotel_Review-g187514-d1052697-Reviews-Eurostars_Madrid_Tower-Madrid.html
1054885,Hotel Barajas Plaza,3,3.6,277,#331 of 498 hotels in Madrid,92,175,$91,"Camarillas Street, 5, 7, 28042 Madrid Spain",+34 913 01 00 81,40.472965,-3.576915,HOTEL,https://www.tripadvisor.com/Hotel_Review-g187514-d1054885-Reviews-Hotel_Barajas_Plaza-Madrid.html
1057227,Hostal Rofer,1,4.1,50,#105 of 361 B&Bs / Inns in Madrid,80,174,,"Calle Toledo 94-2D, 28005 Madrid Spain",+34 913 66 39 69,40.40833,-3.71089,BB,https://www.tripadvisor.com/Hotel_Review-g187514-d1057227-Reviews-Hostal_Rofer-Madrid.html
1057265,Hostal Fuencarral Kryse,2,3,128,#260 of 361 B&Bs / Inns in Madrid,,,,"Calle Fuencarral 25 Escalera 1 Planta 0 1 Izq., 28004 Madrid Spain",,40.42171,-3.70109,BB,https://www.tripadvisor.com/Hotel_Review-g187514-d1057265-Reviews-Hostal_Fuencarral_Kryse-Madrid.html
1057646,Hostal Ballesta,2,4.1,798,#180 of 498 hotels in Madrid,80,254,$166,"Calle de la Ballesta 5, 28004 Madrid Spain",+34 915 32 36 04,40.421562,-3.703561,HOTEL,https://www.tripadvisor.com/Hotel_Review-g187514-d1057646-Reviews-Hostal_Ballesta-Madrid.html
1062550,Hostel Sant Jordi Puerto Del Sol,,5,2,#387 of 697 Specialty lodging in Madrid,,,,"La Victoria 2, Madrid Spain",+34 (0)91 5233192,40.41652,-3.70172,OTHER,https://www.tripadvisor.com/Hotel_Review-g187514-d1062550-Reviews-Hostel_Sant_Jordi_Puerto_Del_Sol-Madrid.html
1066209,Hostal Oxum,,2.5,168,#657 of 697 Specialty lodging in Madrid,,,,"Calle Hortaleza 31 Piso 3 ext, 28004 Madrid Spain",+34 915 21 71 79,40.422035,-3.699927,OTHER,https://www.tripadvisor.com/Hotel_Review-g187514-d1066209-Reviews-Hostal_Oxum-Madrid.html
1075421,Hostal Adriá Santa Ana,3,4.2,165,#86 of 697 Specialty lodging in Madrid,113,230,,"C. de Núñez de Arce, 15 Center, 28012 Madrid Spain",+34 915 21 13 39,40.41508,-3.70127,OTHER,https://www.tripadvisor.com/Hotel_Review-g187514-d1075421-Reviews-Hostal_Adria_Santa_Ana-Madrid.html
1080002,Hostal Salamanca,2,3.6,231,#93 of 361 B&Bs / Inns in Madrid,,,,"Calle Jose Ortega y Gasset 89, 28006 Madrid Spain",+34 914 02 40 46,40.429825,-3.67102,BB,https://www.tripadvisor.com/Hotel_Review-g187514-d1080002-Reviews-Hostal_Salamanca-Madrid.html
1080024,Petit Palace Plaza Mayor,4,4.2,1594,#110 of 498 hotels in Madrid,141,328,$207,"Calle Mayor 46, 28013 Madrid Spain",+34 676 03 52 63,40.416023,-3.709101,HOTEL,https://www.tripadvisor.com/Hotel_Review-g187514-d1080024-Reviews-Petit_Palace_Plaza_Mayor-Madrid.html
1081613,Antigua Posada del Pez,,3.7,98,#175 of 697 Specialty lodging in Madrid,,,,"Calle Pizarro No 16, 28004 Madrid Spain",+34 915 31 42 96,40.42321,-3.70574,OTHER,https://www.tripadvisor.com/Hotel_Review-g187514-d1081613-Reviews-Antigua_Posada_del_Pez-Madrid.html
1084457,Di' Carlo Hoteles,3,3.4,49,#413 of 498 hotels in Madrid,106,173,,"Calle Azucenas 5, 28039 Madrid Spain",+34 914 49 02 72,40.4632,-3.69793,HOTEL,https://www.tripadvisor.com/Hotel_Review-g187514-d1084457-Reviews-Di_Carlo_Hoteles-Madrid.html
1095151,Hostal Go Inn Madrid,2,4.5,432,#7 of 361 B&Bs / Inns in Madrid,,,,"Calle Montera 47 7th Izquierda, 28013 Madrid Spain",+34 915 31 30 12,40.419823,-3.701717,BB,https://www.tripadvisor.com/Hotel_Review-g187514-d1095151-Reviews-Hostal_Go_Inn_Madrid-Madrid.html
1102686,Hostal Regional,,3.3,45,#262 of 697 Specialty lodging in Madrid,,,,"Principe 18 4, 28012 Madrid Spain",+34 915 22 33 73,40.41527,-3.70036,OTHER,https://www.tripadvisor.com/Hotel_Review-g187514-d1102686-Reviews-Hostal_Regional-Madrid.html
1122263,Hostal Centro Sol,2,4.2,145,#61 of 697 Specialty lodging in Madrid,91,172,,"Carrera San Jeronimo 5 Piso 2º, 28014 Madrid Spain",+34 915 22 15 82,40.41674,-3.70146,OTHER,https://www.tripadvisor.com/Hotel_Review-g187514-d1122263-Reviews-Hostal_Centro_Sol-Madrid.html
1122300,Outstanding Place,,5,1,#400 of 697 Specialty lodging in Madrid,,,,"Calle Goya 9 40 D, 28001 Madrid Spain",+34 638 88 00 00,40.42563,-3.68842,OTHER,https://www.tripadvisor.com/Hotel_Review-g187514-d1122300-Reviews-Outstanding_Place-Madrid.html
